% program   : RTKPOST ver.demo5 b34d
% inp file  : Z:\rtklib\VurliBrqg\2021-11-20-14-19-05.obs
% inp file  : Z:\rtklib\VurliBrqg\base-2021-11-20-14-48-53.obs
% inp file  : Z:\rtklib\VurliBrqg\base-2021-11-20-14-48-53.nav
% inp file  : Z:\rtklib\VurliBrqg\base-2021-11-20-14-48-53.sbs
% obs start : 2021/12/02 08:55:25.4 GPST (week2186 377725.4s)
% obs end   : 2021/12/02 09:25:54.1 GPST (week2186 379554.1s)
% pos mode  : Kinematic
% freqs     : L1+L2/E5b
% solution  : Forward
% elev mask : 15.0 deg
% dynamics  : on
% tidecorr  : off
% ionos opt : Broadcast
% tropo opt : Saastamoinen
% ephemeris : Broadcast
% navi sys  : GPS GLONASS Galileo
% amb res   : Fix and Hold
% amb glo   : Fix and Hold
% val thres : 3.0
% antenna1  :                       ( 0.0000  0.0000  0.1840)
% antenna2  :                       ( 0.0000  0.0000  2.0220)
% ref pos   : 42.445985127   27.392237136    38.7240
%
% (lat/lon/height=WGS84/ellipsoidal,Q=1:fix,2:float,3:sbas,4:dgps,5:single,6:ppp,ns=# of satellites)
%  GPST                  latitude(deg) longitude(deg)  height(m)   Q  ns   sdn(m)   sde(m)   sdu(m)  sdne(m)  sdeu(m)  sdun(m) age(s)  ratio
2021/12/02 08:55:25.375   42.445877542   27.392178422    37.3554   2  15   1.3645   0.9463   3.2804   0.4685  -0.5752  -1.2748  -0.01    0.0
2021/12/02 08:55:25.500   42.445878068   27.392178654    37.2331   2  15   1.0276   0.7092   2.4962   0.3396  -0.4013  -1.0058   0.01    0.0
2021/12/02 08:55:25.625   42.445878403   27.392178800    37.1599   2  15   0.8589   0.5913   2.0948   0.2790  -0.3237  -0.8553  -0.06    0.0
2021/12/02 08:55:25.750   42.445878589   27.392178799    37.1054   2  15   0.7530   0.5177   1.8404   0.2423  -0.2780  -0.7566  -0.04    0.0
2021/12/02 08:55:25.875   42.445878697   27.392178840    37.0634   2  15   0.6786   0.4661   1.6607   0.2170  -0.2472  -0.6856  -0.01    0.0
2021/12/02 08:55:26.000   42.445878706   27.392178897    37.0516   2  15   0.6226   0.4274   1.5250   0.1982  -0.2246  -0.6314   0.01    0.0
2021/12/02 08:55:26.125   42.445879186   27.392178399    37.0552   2  13   0.5799   0.3982   1.4258   0.1802  -0.2058  -0.5897  -0.06    0.0
2021/12/02 08:55:26.250   42.445878948   27.392178603    37.0922   2  15   0.5435   0.3730   1.3343   0.1697  -0.1935  -0.5533  -0.04    0.0
2021/12/02 08:55:26.375   42.445878903   27.392178758    37.1022   2  15   0.5134   0.3523   1.2607   0.1602  -0.1820  -0.5236  -0.01    0.0
2021/12/02 08:55:26.500   42.445878851   27.392178778    37.1230   2  15   0.4878   0.3347   1.1981   0.1522  -0.1724  -0.4982   0.01    0.0
2021/12/02 08:55:26.625   42.445878811   27.392178789    37.1409   2  15   0.4657   0.3194   1.1439   0.1452  -0.1641  -0.4762  -0.06    0.0
2021/12/02 08:55:26.750   42.445878824   27.392178848    37.1337   2  15   0.4464   0.3061   1.0965   0.1391  -0.1568  -0.4568  -0.04    0.0
2021/12/02 08:55:26.875   42.445878855   27.392178846    37.1334   2  15   0.4293   0.2943   1.0544   0.1338  -0.1505  -0.4397  -0.01    0.0
2021/12/02 08:55:27.000   42.445878847   27.392178859    37.1341   2  15   0.4140   0.2838   1.0168   0.1290  -0.1449  -0.4243   0.01    0.0
2021/12/02 08:55:27.125   42.445878876   27.392178841    37.1225   2  15   0.4002   0.2744   0.9830   0.1246  -0.1398  -0.4105  -0.06    0.0
2021/12/02 08:55:27.250   42.445878893   27.392178800    37.1075   2  15   0.3877   0.2658   0.9523   0.1207  -0.1353  -0.3979  -0.04    0.0
2021/12/02 08:55:27.375   42.445878884   27.392178782    37.0915   2  15   0.3763   0.2580   0.9242   0.1172  -0.1311  -0.3864  -0.01    0.0
2021/12/02 08:55:27.500   42.445878908   27.392178799    37.0820   2  15   0.3659   0.2508   0.8985   0.1139  -0.1273  -0.3758   0.01    0.0
2021/12/02 08:55:27.625   42.445878916   27.392178756    37.0763   2  15   0.3563   0.2442   0.8748   0.1109  -0.1238  -0.3661  -0.06    0.0
2021/12/02 08:55:27.750   42.445878928   27.392178737    37.0538   2  15   0.3474   0.2381   0.8528   0.1081  -0.1206  -0.3570  -0.04    0.0
2021/12/02 08:55:27.875   42.445878975   27.392178697    37.0449   2  15   0.3391   0.2324   0.8324   0.1055  -0.1177  -0.3487  -0.01    0.0
2021/12/02 08:55:28.000   42.445879011   27.392178667    37.0226   2  15   0.3314   0.2271   0.8134   0.1031  -0.1149  -0.3408   0.01    0.0
2021/12/02 08:55:28.125   42.445879087   27.392178608    36.9917   2  14   0.3244   0.2223   0.7959   0.1004  -0.1112  -0.3341  -0.06    0.0
2021/12/02 08:55:28.250   42.445879074   27.392178594    36.9999   2  15   0.3176   0.2176   0.7790   0.0984  -0.1091  -0.3270  -0.04    0.0
2021/12/02 08:55:28.375   42.445879116   27.392178572    36.9849   2  15   0.3112   0.2133   0.7633   0.0964  -0.1069  -0.3205  -0.01    0.0
2021/12/02 08:55:28.500   42.445879114   27.392178521    36.9942   2  15   0.3052   0.2092   0.7484   0.0946  -0.1048  -0.3144   0.01    0.0
2021/12/02 08:55:28.625   42.445879113   27.392178497    36.9897   2  15   0.2995   0.2053   0.7344   0.0928  -0.1028  -0.3086  -0.06    0.0
2021/12/02 08:55:28.750   42.445879126   27.392178465    36.9966   2  15   0.2942   0.2016   0.7211   0.0911  -0.1010  -0.3032  -0.04    0.0
2021/12/02 08:55:28.875   42.445879132   27.392178475    36.9924   2  15   0.2891   0.1981   0.7085   0.0896  -0.0992  -0.2980  -0.01    0.0
2021/12/02 08:55:29.000   42.445879145   27.392178437    36.9882   2  15   0.2842   0.1948   0.6965   0.0881  -0.0975  -0.2930   0.01    0.0
2021/12/02 08:55:29.125   42.445879153   27.392178443    36.9772   2  15   0.2796   0.1917   0.6850   0.0866  -0.0959  -0.2883  -0.06    0.0
2021/12/02 08:55:29.250   42.445879144   27.392178400    36.9748   2  15   0.2753   0.1887   0.6741   0.0853  -0.0944  -0.2839  -0.04    0.0
2021/12/02 08:55:29.375   42.445879185   27.392178383    36.9639   2  15   0.2711   0.1858   0.6637   0.0840  -0.0929  -0.2796  -0.01    0.0
2021/12/02 08:55:29.500   42.445879195   27.392178341    36.9617   2  15   0.2671   0.1831   0.6537   0.0827  -0.0915  -0.2755   0.01    0.0
2021/12/02 08:55:29.625   42.445879200   27.392178310    36.9725   2  15   0.2632   0.1804   0.6442   0.0815  -0.0902  -0.2716  -0.06    0.0
2021/12/02 08:55:29.750   42.445879241   27.392178312    36.9674   2  15   0.2596   0.1779   0.6350   0.0804  -0.0889  -0.2678  -0.04    0.0
2021/12/02 08:55:29.875   42.445879238   27.392178297    36.9588   2  15   0.2560   0.1755   0.6262   0.0793  -0.0877  -0.2642  -0.01    0.0
2021/12/02 08:55:30.000   42.445879271   27.392178293    36.9549   2  15   0.2526   0.1732   0.6177   0.0782  -0.0865  -0.2608   0.01    0.0
2021/12/02 08:55:30.125   42.445879266   27.392178277    36.9459   2  15   0.2494   0.1710   0.6095   0.0772  -0.0855  -0.2574  -0.06    0.0
2021/12/02 08:55:30.250   42.445879302   27.392178264    36.9402   2  15   0.2462   0.1688   0.6016   0.0763  -0.0844  -0.2542  -0.04    0.0
2021/12/02 08:55:30.375   42.445879295   27.392178267    36.9459   2  15   0.2432   0.1668   0.5941   0.0753  -0.0834  -0.2511  -0.01    0.0
2021/12/02 08:55:30.500   42.445879321   27.392178234    36.9620   2  15   0.2403   0.1648   0.5867   0.0744  -0.0823  -0.2481   0.01    0.0
2021/12/02 08:55:30.625   42.445879334   27.392178220    36.9590   2  15   0.2375   0.1629   0.5797   0.0735  -0.0814  -0.2452  -0.06    0.0
2021/12/02 08:55:30.750   42.445879348   27.392178203    36.9700   2  15   0.2347   0.1610   0.5728   0.0727  -0.0804  -0.2425  -0.04    0.0
2021/12/02 08:55:30.875   42.445879359   27.392178179    36.9568   2  15   0.2321   0.1592   0.5662   0.0719  -0.0795  -0.2398  -0.01    0.0
2021/12/02 08:55:31.000   42.445879328   27.392178146    36.9733   2  15   0.2296   0.1575   0.5598   0.0711  -0.0786  -0.2372   0.01    0.0
2021/12/02 08:55:31.125   42.445879361   27.392178140    36.9600   2  15   0.2271   0.1558   0.5536   0.0703  -0.0778  -0.2347  -0.06    0.0
2021/12/02 08:55:31.250   42.445879335   27.392178113    36.9784   2  15   0.2247   0.1542   0.5475   0.0695  -0.0769  -0.2322  -0.04    0.0
2021/12/02 08:55:31.375   42.445879364   27.392178120    36.9759   2  15   0.2224   0.1526   0.5417   0.0688  -0.0761  -0.2299  -0.01    0.0
2021/12/02 08:55:31.500   42.445879359   27.392178117    36.9678   2  15   0.2201   0.1510   0.5360   0.0681  -0.0753  -0.2276   0.01    0.0
2021/12/02 08:55:31.625   42.445879341   27.392178109    36.9815   2  15   0.2180   0.1496   0.5305   0.0674  -0.0746  -0.2253  -0.06    0.0
2021/12/02 08:55:31.750   42.445879357   27.392178102    36.9643   2  15   0.2158   0.1481   0.5251   0.0668  -0.0739  -0.2232  -0.04    0.0
2021/12/02 08:55:31.875   42.445879370   27.392178097    36.9565   2  15   0.2138   0.1467   0.5198   0.0661  -0.0731  -0.2211  -0.01    0.0
2021/12/02 08:55:32.000   42.445879367   27.392178081    36.9594   2  15   0.2118   0.1453   0.5147   0.0655  -0.0724  -0.2190   0.01    0.0
2021/12/02 08:55:32.125   42.445879374   27.392178062    36.9722   2  14   0.2098   0.1440   0.5100   0.0649  -0.0720  -0.2170  -0.06    0.0
2021/12/02 08:55:32.250   42.445879388   27.392178072    36.9673   2  15   0.2079   0.1427   0.5051   0.0643  -0.0713  -0.2150  -0.04    0.0
2021/12/02 08:55:32.375   42.445879390   27.392178050    36.9689   2  15   0.2061   0.1415   0.5004   0.0637  -0.0707  -0.2132  -0.01    0.0
2021/12/02 08:55:32.500   42.445879409   27.392178019    36.9584   2  15   0.2043   0.1403   0.4958   0.0631  -0.0700  -0.2113   0.01    0.0
2021/12/02 08:55:32.625   42.445879377   27.392178030    36.9635   2  15   0.2025   0.1391   0.4913   0.0626  -0.0694  -0.2095  -0.06    0.0
2021/12/02 08:55:32.750   42.445879380   27.392178018    36.9644   2  15   0.2008   0.1379   0.4869   0.0620  -0.0688  -0.2078  -0.04    2.7
2021/12/02 08:55:32.875   42.445884799   27.392181793    35.9526   1  15   0.0052   0.0036   0.0119   0.0015  -0.0015  -0.0051  -0.01    4.1
2021/12/02 08:55:33.000   42.445884790   27.392181783    35.9531   1  15   0.0051   0.0035   0.0118   0.0015  -0.0015  -0.0050   0.01    4.1
2021/12/02 08:55:33.125   42.445884816   27.392181784    35.9462   1  15   0.0051   0.0035   0.0116   0.0015  -0.0015  -0.0049  -0.06    4.1
2021/12/02 08:55:33.250   42.445884791   27.392181789    35.9479   1  15   0.0051   0.0035   0.0116   0.0015  -0.0015  -0.0049  -0.04    4.0
2021/12/02 08:55:33.375   42.445884792   27.392181792    35.9537   1  15   0.0051   0.0035   0.0116   0.0015  -0.0015  -0.0049  -0.01    4.0
2021/12/02 08:55:33.500   42.445884812   27.392181782    35.9474   1  15   0.0051   0.0035   0.0116   0.0015  -0.0014  -0.0049   0.01    4.0
2021/12/02 08:55:33.625   42.445884814   27.392181780    35.9508   1  15   0.0051   0.0035   0.0116   0.0015  -0.0014  -0.0049  -0.06    4.1
2021/12/02 08:55:33.750   42.445884786   27.392181792    35.9515   1  15   0.0051   0.0035   0.0116   0.0015  -0.0014  -0.0049  -0.04    4.1
2021/12/02 08:55:33.875   42.445884793   27.392181797    35.9534   1  15   0.0051   0.0035   0.0116   0.0015  -0.0014  -0.0049  -0.01    4.1
2021/12/02 08:55:34.000   42.445884825   27.392181797    35.9469   1  15   0.0051   0.0035   0.0115   0.0015  -0.0014  -0.0049   0.01    4.1
2021/12/02 08:55:34.125   42.445884800   27.392181801    35.9480   1  14   0.0051   0.0035   0.0118   0.0015  -0.0017  -0.0048  -0.06    4.1
2021/12/02 08:55:34.250   42.445884828   27.392181827    35.9399   1  15   0.0051   0.0035   0.0118   0.0015  -0.0017  -0.0048  -0.04    4.2
2021/12/02 08:55:34.375   42.445884840   27.392181813    35.9378   1  15   0.0051   0.0035   0.0118   0.0015  -0.0016  -0.0049  -0.01    4.2
2021/12/02 08:55:34.500   42.445884848   27.392181803    35.9373   1  15   0.0051   0.0035   0.0117   0.0015  -0.0016  -0.0049   0.01    4.2
2021/12/02 08:55:34.625   42.445884824   27.392181811    35.9429   1  14   0.0051   0.0036   0.0118   0.0013  -0.0011  -0.0050  -0.06    4.3
2021/12/02 08:55:34.750   42.445884816   27.392181815    35.9489   1  15   0.0051   0.0035   0.0116   0.0015  -0.0015  -0.0049  -0.04    4.3
2021/12/02 08:55:34.875   42.445884810   27.392181814    35.9517   1  15   0.0051   0.0035   0.0116   0.0015  -0.0015  -0.0049  -0.01    4.3
2021/12/02 08:55:35.000   42.445884822   27.392181798    35.9488   1  15   0.0051   0.0035   0.0116   0.0015  -0.0015  -0.0049   0.01    4.3
2021/12/02 08:55:35.125   42.445884810   27.392181794    35.9499   1  15   0.0051   0.0035   0.0116   0.0015  -0.0015  -0.0049  -0.06    4.3
2021/12/02 08:55:35.250   42.445884805   27.392181796    35.9520   1  15   0.0051   0.0035   0.0116   0.0015  -0.0015  -0.0049  -0.04    4.3
2021/12/02 08:55:35.375   42.445884806   27.392181793    35.9476   1  15   0.0051   0.0035   0.0115   0.0015  -0.0015  -0.0049  -0.01    4.3
2021/12/02 08:55:35.500   42.445884818   27.392181821    35.9483   1  15   0.0051   0.0035   0.0115   0.0015  -0.0015  -0.0049   0.01    4.3
2021/12/02 08:55:35.625   42.445884850   27.392181817    35.9500   1  15   0.0051   0.0035   0.0115   0.0015  -0.0015  -0.0049  -0.06    4.3
2021/12/02 08:55:35.750   42.445884841   27.392181818    35.9479   1  15   0.0051   0.0035   0.0115   0.0015  -0.0015  -0.0049  -0.04    4.4
2021/12/02 08:55:35.875   42.445884850   27.392181856    35.9440   1  15   0.0051   0.0035   0.0115   0.0015  -0.0015  -0.0049  -0.01    4.4
2021/12/02 08:55:36.000   42.445884837   27.392181842    35.9452   1  15   0.0051   0.0035   0.0115   0.0015  -0.0015  -0.0049   0.01    4.4
2021/12/02 08:55:36.125   42.445884842   27.392181816    35.9495   1  13   0.0051   0.0036   0.0119   0.0013  -0.0013  -0.0049  -0.06    4.4
2021/12/02 08:55:36.250   42.445884855   27.392181822    35.9524   1  15   0.0051   0.0036   0.0119   0.0012  -0.0013  -0.0049  -0.04    4.4
2021/12/02 08:55:36.375   42.445884866   27.392181823    35.9502   1  15   0.0051   0.0036   0.0119   0.0014  -0.0014  -0.0049  -0.01    4.4
2021/12/02 08:55:36.500   42.445884831   27.392181827    35.9546   1  15   0.0051   0.0035   0.0117   0.0014  -0.0014  -0.0049   0.01    4.4
2021/12/02 08:55:36.625   42.445884852   27.392181843    35.9528   1  15   0.0051   0.0035   0.0117   0.0014  -0.0014  -0.0049  -0.06    4.4
2021/12/02 08:55:36.750   42.445884846   27.392181852    35.9478   1  15   0.0051   0.0035   0.0116   0.0015  -0.0014  -0.0049  -0.04    4.4
2021/12/02 08:55:36.875   42.445884855   27.392181820    35.9483   1  14   0.0051   0.0035   0.0118   0.0014  -0.0016  -0.0048  -0.01    4.4
2021/12/02 08:55:37.000   42.445884849   27.392181832    35.9540   1  14   0.0051   0.0035   0.0118   0.0014  -0.0017  -0.0048   0.01    4.4
2021/12/02 08:55:37.125   42.445884856   27.392181817    35.9547   1  14   0.0051   0.0035   0.0118   0.0014  -0.0017  -0.0048  -0.06    4.5
2021/12/02 08:55:37.250   42.445884862   27.392181800    35.9557   1  14   0.0051   0.0035   0.0118   0.0014  -0.0017  -0.0048  -0.04    4.5
2021/12/02 08:55:37.375   42.445884855   27.392181819    35.9466   1  14   0.0051   0.0035   0.0118   0.0015  -0.0017  -0.0048  -0.01    4.5
2021/12/02 08:55:37.500   42.445884835   27.392181802    35.9516   1  15   0.0051   0.0035   0.0116   0.0015  -0.0015  -0.0049   0.01    4.5
2021/12/02 08:55:37.625   42.445884842   27.392181815    35.9501   1  15   0.0051   0.0035   0.0116   0.0015  -0.0015  -0.0049  -0.06    4.5
2021/12/02 08:55:37.750   42.445884834   27.392181809    35.9476   1  15   0.0051   0.0035   0.0116   0.0015  -0.0015  -0.0049  -0.04    4.5
2021/12/02 08:55:37.875   42.445884838   27.392181811    35.9548   1  15   0.0050   0.0035   0.0115   0.0015  -0.0015  -0.0049  -0.01    4.5
2021/12/02 08:55:38.000   42.445884827   27.392181806    35.9512   1  15   0.0050   0.0035   0.0115   0.0015  -0.0015  -0.0049   0.01    4.5
2021/12/02 08:55:38.125   42.445884843   27.392181812    35.9477   1  14   0.0051   0.0036   0.0118   0.0013  -0.0013  -0.0049  -0.06    4.5
2021/12/02 08:55:38.250   42.445884837   27.392181807    35.9497   1  15   0.0051   0.0036   0.0119   0.0013  -0.0015  -0.0049  -0.04    4.5
2021/12/02 08:55:38.375   42.445884845   27.392181798    35.9505   1  15   0.0051   0.0035   0.0118   0.0014  -0.0015  -0.0049  -0.01    4.5
2021/12/02 08:55:38.500   42.445884845   27.392181810    35.9482   1  15   0.0051   0.0035   0.0117   0.0014  -0.0015  -0.0049   0.01    4.5
2021/12/02 08:55:38.625   42.445884840   27.392181807    35.9520   1  15   0.0051   0.0035   0.0116   0.0015  -0.0015  -0.0049  -0.06    4.6
2021/12/02 08:55:38.750   42.445884838   27.392181811    35.9544   1  15   0.0051   0.0035   0.0116   0.0015  -0.0015  -0.0049  -0.04    4.6
2021/12/02 08:55:38.875   42.445884845   27.392181794    35.9518   1  15   0.0051   0.0035   0.0115   0.0015  -0.0015  -0.0049  -0.01    4.6
2021/12/02 08:55:39.000   42.445884829   27.392181820    35.9523   1  15   0.0051   0.0035   0.0115   0.0015  -0.0015  -0.0049   0.01    4.6
2021/12/02 08:55:39.125   42.445884828   27.392181833    35.9542   1  15   0.0050   0.0035   0.0115   0.0015  -0.0015  -0.0049  -0.06    4.6
2021/12/02 08:55:39.250   42.445884857   27.392181834    35.9469   1  15   0.0051   0.0035   0.0115   0.0015  -0.0015  -0.0049  -0.04    4.6
2021/12/02 08:55:39.375   42.445884842   27.392181820    35.9482   1  15   0.0050   0.0035   0.0115   0.0015  -0.0015  -0.0049  -0.01    4.7
2021/12/02 08:55:39.500   42.445884921   27.392181812    35.9278   1  15   0.0050   0.0035   0.0114   0.0015  -0.0015  -0.0048   0.01    3.0
2021/12/02 08:55:39.625   42.445884917   27.392181796    35.9371   1  15   0.0050   0.0035   0.0114   0.0015  -0.0015  -0.0048  -0.06    3.0
2021/12/02 08:55:39.750   42.445884924   27.392181820    35.9305   1  15   0.0050   0.0035   0.0114   0.0015  -0.0015  -0.0048  -0.04    3.0
2021/12/02 08:55:39.875   42.445884947   27.392181821    35.9251   1  15   0.0050   0.0035   0.0114   0.0016  -0.0016  -0.0047  -0.01    3.0
2021/12/02 08:55:40.000   42.445884958   27.392181787    35.9273   1  15   0.0050   0.0035   0.0113   0.0016  -0.0017  -0.0047   0.01    3.0
2021/12/02 08:55:40.125   42.445884947   27.392181798    35.9251   1  14   0.0050   0.0035   0.0117   0.0014  -0.0017  -0.0047  -0.06    3.0
2021/12/02 08:55:40.250   42.445884933   27.392181787    35.9311   1  15   0.0051   0.0036   0.0118   0.0013  -0.0013  -0.0049  -0.04    3.0
2021/12/02 08:55:40.375   42.445884947   27.392181797    35.9266   1  15   0.0050   0.0035   0.0117   0.0015  -0.0015  -0.0048  -0.01    3.0
2021/12/02 08:55:40.500   42.445884955   27.392181801    35.9281   1  15   0.0050   0.0035   0.0115   0.0016  -0.0016  -0.0048   0.01    3.0
2021/12/02 08:55:40.625   42.445884939   27.392181801    35.9275   1  15   0.0050   0.0035   0.0114   0.0016  -0.0017  -0.0047  -0.06    3.0
2021/12/02 08:55:40.750   42.445884954   27.392181772    35.9307   1  15   0.0050   0.0035   0.0114   0.0016  -0.0017  -0.0047  -0.04    3.0
2021/12/02 08:55:40.875   42.445884957   27.392181780    35.9266   1  15   0.0050   0.0035   0.0113   0.0016  -0.0017  -0.0047  -0.01    3.0
2021/12/02 08:55:41.000   42.445884933   27.392181794    35.9295   1  15   0.0050   0.0035   0.0113   0.0016  -0.0018  -0.0047   0.01    3.0
2021/12/02 08:55:41.125   42.445884963   27.392181786    35.9246   1  15   0.0050   0.0035   0.0113   0.0016  -0.0018  -0.0047  -0.06    3.0
2021/12/02 08:55:41.250   42.445884950   27.392181787    35.9255   1  15   0.0050   0.0035   0.0113   0.0016  -0.0018  -0.0047  -0.04    3.0
2021/12/02 08:55:41.375   42.445884966   27.392181770    35.9284   1  15   0.0050   0.0035   0.0113   0.0016  -0.0018  -0.0046  -0.01    3.0
2021/12/02 08:55:41.500   42.445884964   27.392181783    35.9266   1  15   0.0050   0.0035   0.0113   0.0017  -0.0018  -0.0046   0.01    3.0
2021/12/02 08:55:41.625   42.445884945   27.392181789    35.9258   1  15   0.0050   0.0035   0.0113   0.0017  -0.0018  -0.0046  -0.06    3.0
2021/12/02 08:55:41.750   42.445880551   27.392176671    37.3049   2  15   0.1332   0.0924   0.3080   0.0412  -0.0469  -0.1392  -0.04    3.0
2021/12/02 08:55:41.875   42.445884888   27.392181799    35.9504   1  15   0.0050   0.0035   0.0114   0.0016  -0.0018  -0.0047  -0.01    4.6
2021/12/02 08:55:42.000   42.445884876   27.392181817    35.9489   1  15   0.0050   0.0035   0.0113   0.0016  -0.0018  -0.0047   0.01    4.6
2021/12/02 08:55:42.125   42.445884894   27.392181816    35.9463   1  15   0.0051   0.0036   0.0116   0.0013  -0.0010  -0.0050  -0.06    4.6
2021/12/02 08:55:42.250   42.445884871   27.392181817    35.9449   1  15   0.0051   0.0036   0.0117   0.0013  -0.0010  -0.0050  -0.04    4.6
2021/12/02 08:55:42.375   42.445884854   27.392181807    35.9489   1  15   0.0051   0.0035   0.0116   0.0015  -0.0013  -0.0049  -0.01    4.6
2021/12/02 08:55:42.500   42.445884864   27.392181816    35.9466   1  15   0.0050   0.0035   0.0115   0.0016  -0.0015  -0.0048   0.01    4.5
2021/12/02 08:55:42.625   42.445884863   27.392181813    35.9500   1  15   0.0050   0.0035   0.0115   0.0016  -0.0016  -0.0048  -0.06    4.5
2021/12/02 08:55:42.750   42.445884860   27.392181806    35.9439   1  15   0.0050   0.0035   0.0114   0.0016  -0.0016  -0.0048  -0.04    4.5
2021/12/02 08:55:42.875   42.445884893   27.392181813    35.9442   1  15   0.0050   0.0035   0.0114   0.0016  -0.0017  -0.0047  -0.01    4.6
2021/12/02 08:55:43.000   42.445884858   27.392181830    35.9501   1  15   0.0050   0.0035   0.0114   0.0016  -0.0017  -0.0047   0.01    4.6
2021/12/02 08:55:43.125   42.445884884   27.392181806    35.9492   1  15   0.0050   0.0035   0.0114   0.0016  -0.0017  -0.0047  -0.06    4.6
2021/12/02 08:55:43.250   42.445884960   27.392181770    35.9220   1  15   0.0050   0.0035   0.0113   0.0017  -0.0018  -0.0047  -0.04    3.0
2021/12/02 08:55:43.375   42.445884945   27.392181776    35.9232   1  15   0.0050   0.0035   0.0113   0.0017  -0.0018  -0.0047  -0.01    3.0
2021/12/02 08:55:43.500   42.445884973   27.392181778    35.9161   1  15   0.0050   0.0035   0.0113   0.0017  -0.0018  -0.0046   0.01    3.0
2021/12/02 08:55:43.625   42.445884960   27.392181772    35.9222   1  15   0.0050   0.0035   0.0113   0.0017  -0.0018  -0.0046  -0.06    3.0
2021/12/02 08:55:43.750   42.445884955   27.392181780    35.9213   1  15   0.0050   0.0035   0.0113   0.0017  -0.0018  -0.0046  -0.04    3.0
2021/12/02 08:55:43.875   42.445884955   27.392181776    35.9177   1  15   0.0049   0.0035   0.0113   0.0017  -0.0018  -0.0046  -0.01    3.0
2021/12/02 08:55:44.000   42.445884932   27.392181773    35.9231   1  15   0.0049   0.0035   0.0113   0.0017  -0.0018  -0.0046   0.01    3.0
2021/12/02 08:55:44.125   42.445884952   27.392181765    35.9257   1  14   0.0050   0.0035   0.0114   0.0015  -0.0015  -0.0048  -0.06    3.0
2021/12/02 08:55:44.250   42.445884954   27.392181779    35.9210   1  15   0.0051   0.0036   0.0116   0.0014  -0.0010  -0.0049  -0.04    3.0
2021/12/02 08:55:44.375   42.445884954   27.392181783    35.9199   1  15   0.0050   0.0035   0.0115   0.0015  -0.0013  -0.0049  -0.01    3.0
2021/12/02 08:55:44.500   42.445884944   27.392181761    35.9237   1  15   0.0050   0.0035   0.0114   0.0016  -0.0015  -0.0048   0.01    3.0
2021/12/02 08:55:44.625   42.445884960   27.392181772    35.9223   1  15   0.0050   0.0035   0.0114   0.0016  -0.0016  -0.0047  -0.06    3.0
2021/12/02 08:55:44.750   42.445884952   27.392181768    35.9190   1  15   0.0050   0.0035   0.0113   0.0016  -0.0017  -0.0047  -0.04    3.0
2021/12/02 08:55:44.875   42.445884951   27.392181771    35.9209   1  15   0.0050   0.0035   0.0113   0.0016  -0.0017  -0.0047  -0.01    3.0
2021/12/02 08:55:45.000   42.445884954   27.392181775    35.9228   1  15   0.0050   0.0035   0.0113   0.0016  -0.0017  -0.0047   0.01    3.0
2021/12/02 08:55:45.125   42.445884946   27.392181777    35.9238   1  15   0.0050   0.0035   0.0113   0.0016  -0.0017  -0.0047  -0.06    3.0
2021/12/02 08:55:45.250   42.445884958   27.392181770    35.9202   1  15   0.0050   0.0035   0.0113   0.0016  -0.0017  -0.0047  -0.04    3.0
2021/12/02 08:55:45.375   42.445884959   27.392181793    35.9246   1  15   0.0050   0.0035   0.0113   0.0017  -0.0017  -0.0046  -0.01    3.1
2021/12/02 08:55:45.500   42.445884949   27.392181777    35.9176   1  15   0.0049   0.0035   0.0113   0.0017  -0.0018  -0.0046   0.01    3.1
2021/12/02 08:55:45.625   42.445884940   27.392181763    35.9201   1  15   0.0049   0.0035   0.0113   0.0017  -0.0018  -0.0046  -0.06    3.1
2021/12/02 08:55:45.750   42.445884966   27.392181771    35.9189   1  15   0.0050   0.0035   0.0113   0.0017  -0.0018  -0.0046  -0.04    3.1
2021/12/02 08:55:45.875   42.445884943   27.392181755    35.9195   1  15   0.0049   0.0035   0.0113   0.0017  -0.0018  -0.0046  -0.01    3.1
2021/12/02 08:55:46.000   42.445884972   27.392181779    35.9205   1  14   0.0050   0.0035   0.0114   0.0015  -0.0015  -0.0048   0.01    3.1
2021/12/02 08:55:46.125   42.445884965   27.392181764    35.9220   1  14   0.0050   0.0035   0.0114   0.0015  -0.0015  -0.0048  -0.06    3.1
2021/12/02 08:55:46.250   42.445884942   27.392181776    35.9200   1  14   0.0050   0.0035   0.0114   0.0015  -0.0015  -0.0048  -0.04    3.1
2021/12/02 08:55:46.375   42.445884934   27.392181777    35.9212   1  14   0.0050   0.0035   0.0114   0.0015  -0.0015  -0.0048  -0.01    3.1
2021/12/02 08:55:46.500   42.445884977   27.392181763    35.9187   1  14   0.0050   0.0035   0.0114   0.0015  -0.0015  -0.0048   0.01    3.1
2021/12/02 08:55:46.625   42.445884971   27.392181764    35.9208   1  15   0.0051   0.0036   0.0115   0.0014  -0.0010  -0.0049  -0.06    3.1
2021/12/02 08:55:46.750   42.445884957   27.392181791    35.9212   1  15   0.0050   0.0035   0.0115   0.0015  -0.0013  -0.0049  -0.04    3.1
2021/12/02 08:55:46.875   42.445884967   27.392181754    35.9213   1  15   0.0050   0.0035   0.0114   0.0016  -0.0015  -0.0048  -0.01    3.1
2021/12/02 08:55:47.000   42.445884962   27.392181760    35.9208   1  15   0.0050   0.0035   0.0114   0.0016  -0.0016  -0.0047   0.01    3.1
2021/12/02 08:55:47.125   42.445884952   27.392181748    35.9259   1  15   0.0050   0.0035   0.0113   0.0016  -0.0017  -0.0047  -0.06    3.1
2021/12/02 08:55:47.250   42.445884936   27.392181771    35.9258   1  15   0.0050   0.0035   0.0113   0.0016  -0.0017  -0.0047  -0.04    3.1
2021/12/02 08:55:47.375   42.445884945   27.392181764    35.9230   1  14   0.0050   0.0035   0.0114   0.0015  -0.0014  -0.0048  -0.01    3.1
2021/12/02 08:55:47.500   42.445884953   27.392181749    35.9250   1  14   0.0050   0.0035   0.0114   0.0015  -0.0014  -0.0048   0.01    3.1
2021/12/02 08:55:47.625   42.445884964   27.392181752    35.9224   1  14   0.0050   0.0035   0.0114   0.0015  -0.0014  -0.0048  -0.06    3.2
2021/12/02 08:55:47.750   42.445884950   27.392181751    35.9196   1  14   0.0050   0.0035   0.0114   0.0015  -0.0014  -0.0048  -0.04    3.2
2021/12/02 08:55:47.875   42.445884947   27.392181758    35.9208   1  14   0.0050   0.0035   0.0114   0.0015  -0.0014  -0.0048  -0.01    3.2
2021/12/02 08:55:48.000   42.445884941   27.392181745    35.9217   1  14   0.0050   0.0035   0.0114   0.0015  -0.0014  -0.0048   0.01    3.2
2021/12/02 08:55:48.125   42.445884947   27.392181757    35.9223   1  14   0.0050   0.0035   0.0114   0.0015  -0.0014  -0.0048  -0.06    3.2
2021/12/02 08:55:48.250   42.445884939   27.392181760    35.9218   1  15   0.0051   0.0036   0.0115   0.0014  -0.0010  -0.0049  -0.04    3.2
2021/12/02 08:55:48.375   42.445884957   27.392181754    35.9204   1  15   0.0050   0.0035   0.0115   0.0015  -0.0013  -0.0049  -0.01    3.2
2021/12/02 08:55:48.500   42.445884960   27.392181747    35.9213   1  15   0.0050   0.0035   0.0114   0.0016  -0.0015  -0.0048   0.01    3.2
2021/12/02 08:55:48.625   42.445884954   27.392181752    35.9212   1  15   0.0050   0.0035   0.0114   0.0016  -0.0016  -0.0047  -0.06    3.2
2021/12/02 08:55:48.750   42.445884948   27.392181752    35.9195   1  15   0.0050   0.0035   0.0113   0.0016  -0.0017  -0.0047  -0.04    3.2
2021/12/02 08:55:48.875   42.445884941   27.392181738    35.9179   1  15   0.0050   0.0035   0.0113   0.0016  -0.0017  -0.0047  -0.01    3.2
2021/12/02 08:55:49.000   42.445884931   27.392181755    35.9218   1  15   0.0050   0.0035   0.0113   0.0016  -0.0017  -0.0047   0.01    3.2
2021/12/02 08:55:49.125   42.445884932   27.392181752    35.9206   1  15   0.0050   0.0035   0.0113   0.0016  -0.0017  -0.0047  -0.06    3.2
2021/12/02 08:55:49.250   42.445884935   27.392181753    35.9225   1  15   0.0050   0.0035   0.0113   0.0016  -0.0017  -0.0046  -0.04    3.2
2021/12/02 08:55:49.375   42.445884935   27.392181749    35.9198   1  15   0.0049   0.0035   0.0113   0.0016  -0.0017  -0.0046  -0.01    3.2
2021/12/02 08:55:49.500   42.445884934   27.392181763    35.9193   1  15   0.0049   0.0035   0.0113   0.0017  -0.0018  -0.0046   0.01    3.2
2021/12/02 08:55:49.625   42.445884925   27.392181737    35.9182   1  15   0.0049   0.0035   0.0113   0.0017  -0.0018  -0.0046  -0.06    3.2
2021/12/02 08:55:49.750   42.445884957   27.392181739    35.9183   1  15   0.0049   0.0035   0.0113   0.0017  -0.0018  -0.0046  -0.04    3.3
2021/12/02 08:55:49.875   42.445884942   27.392181751    35.9184   1  15   0.0049   0.0035   0.0112   0.0017  -0.0018  -0.0046  -0.01    3.3
2021/12/02 08:55:50.000   42.445884915   27.392181760    35.9262   1  14   0.0050   0.0035   0.0114   0.0015  -0.0015  -0.0048   0.01    3.3
2021/12/02 08:55:50.125   42.445884923   27.392181749    35.9233   1  14   0.0050   0.0035   0.0114   0.0015  -0.0014  -0.0048  -0.06    3.3
2021/12/02 08:55:50.250   42.445884937   27.392181757    35.9223   1  14   0.0050   0.0035   0.0114   0.0015  -0.0015  -0.0048  -0.04    3.3
2021/12/02 08:55:50.375   42.445884927   27.392181752    35.9197   1  14   0.0050   0.0035   0.0114   0.0015  -0.0015  -0.0048  -0.01    3.3
2021/12/02 08:55:50.500   42.445884949   27.392181750    35.9194   1  14   0.0050   0.0035   0.0114   0.0015  -0.0015  -0.0048   0.01    3.3
2021/12/02 08:55:50.625   42.445884925   27.392181736    35.9227   1  14   0.0050   0.0035   0.0114   0.0015  -0.0015  -0.0048  -0.06    3.3
2021/12/02 08:55:50.750   42.445884938   27.392181769    35.9199   1  14   0.0050   0.0035   0.0114   0.0015  -0.0015  -0.0048  -0.04    3.3
2021/12/02 08:55:50.875   42.445884923   27.392181753    35.9226   1  14   0.0050   0.0035   0.0114   0.0015  -0.0015  -0.0048  -0.01    3.3
2021/12/02 08:55:51.000   42.445884919   27.392181767    35.9214   1  14   0.0050   0.0035   0.0114   0.0015  -0.0015  -0.0048   0.01    3.3
2021/12/02 08:55:51.125   42.445884938   27.392181722    35.9189   1  14   0.0050   0.0035   0.0114   0.0015  -0.0015  -0.0048  -0.06    3.3
2021/12/02 08:55:51.250   42.445884950   27.392181742    35.9228   1  14   0.0050   0.0035   0.0114   0.0015  -0.0015  -0.0048  -0.04    3.3
2021/12/02 08:55:51.375   42.445884924   27.392181758    35.9216   1  14   0.0050   0.0035   0.0114   0.0015  -0.0015  -0.0048  -0.01    3.3
2021/12/02 08:55:51.500   42.445884903   27.392181742    35.9247   1  14   0.0050   0.0035   0.0114   0.0015  -0.0015  -0.0048   0.01    3.3
2021/12/02 08:55:51.625   42.445884936   27.392181746    35.9249   1  14   0.0050   0.0035   0.0114   0.0015  -0.0015  -0.0048  -0.06    3.4
2021/12/02 08:55:51.750   42.445884910   27.392181748    35.9232   1  14   0.0050   0.0035   0.0114   0.0015  -0.0015  -0.0048  -0.04    3.4
2021/12/02 08:55:51.875   42.445884929   27.392181741    35.9195   1  14   0.0050   0.0035   0.0114   0.0015  -0.0015  -0.0048  -0.01    3.4
2021/12/02 08:55:52.000   42.445884947   27.392181736    35.9213   1  14   0.0050   0.0035   0.0114   0.0015  -0.0015  -0.0048   0.01    3.4
2021/12/02 08:55:52.125   42.445884923   27.392181722    35.9239   1  14   0.0050   0.0035   0.0114   0.0015  -0.0015  -0.0048  -0.06    3.4
2021/12/02 08:55:52.250   42.445884937   27.392181748    35.9214   1  14   0.0050   0.0035   0.0114   0.0016  -0.0015  -0.0048  -0.04    3.4
2021/12/02 08:55:52.375   42.445884914   27.392181739    35.9253   1  15   0.0051   0.0036   0.0115   0.0014  -0.0010  -0.0049  -0.01    3.4
2021/12/02 08:55:52.500   42.445884933   27.392181726    35.9232   1  14   0.0050   0.0035   0.0115   0.0014  -0.0011  -0.0049   0.01    3.4
2021/12/02 08:55:52.625   42.445884907   27.392181749    35.9243   1  14   0.0050   0.0035   0.0115   0.0015  -0.0013  -0.0048  -0.06    3.4
2021/12/02 08:55:52.750   42.445884936   27.392181731    35.9238   1  14   0.0050   0.0035   0.0115   0.0015  -0.0013  -0.0048  -0.04    3.4
2021/12/02 08:55:52.875   42.445884919   27.392181731    35.9266   1  14   0.0050   0.0035   0.0114   0.0015  -0.0014  -0.0048  -0.01    3.4
2021/12/02 08:55:53.000   42.445884924   27.392181744    35.9218   1  14   0.0050   0.0035   0.0114   0.0015  -0.0014  -0.0048   0.01    3.4
2021/12/02 08:55:53.125   42.445884948   27.392181726    35.9274   1  14   0.0050   0.0035   0.0114   0.0015  -0.0014  -0.0048  -0.06    3.4
2021/12/02 08:55:53.250   42.445884914   27.392181725    35.9254   1  13   0.0050   0.0035   0.0116   0.0015  -0.0017  -0.0047  -0.04    3.4
2021/12/02 08:55:53.375   42.445884906   27.392181719    35.9260   1  13   0.0050   0.0035   0.0117   0.0015  -0.0017  -0.0047  -0.01    3.4
2021/12/02 08:55:53.500   42.445884932   27.392181754    35.9213   1  13   0.0050   0.0035   0.0117   0.0015  -0.0017  -0.0047   0.01    3.4
2021/12/02 08:55:53.625   42.445884933   27.392181731    35.9184   1  13   0.0050   0.0035   0.0117   0.0015  -0.0017  -0.0047  -0.06    3.4
2021/12/02 08:55:53.750   42.445884917   27.392181734    35.9228   1  14   0.0050   0.0035   0.0115   0.0015  -0.0014  -0.0048  -0.04    3.4
2021/12/02 08:55:53.875   42.445884916   27.392181739    35.9210   1  14   0.0050   0.0035   0.0114   0.0015  -0.0014  -0.0048  -0.01    3.4
2021/12/02 08:55:54.000   42.445884924   27.392181741    35.9225   1  14   0.0050   0.0035   0.0114   0.0015  -0.0014  -0.0048   0.01    3.5
2021/12/02 08:55:54.125   42.445884902   27.392181725    35.9228   1  13   0.0050   0.0035   0.0116   0.0015  -0.0017  -0.0047  -0.06    3.5
2021/12/02 08:55:54.250   42.445884923   27.392181708    35.9242   1  13   0.0050   0.0035   0.0117   0.0015  -0.0017  -0.0047  -0.04    3.5
2021/12/02 08:55:54.375   42.445884917   27.392181748    35.9202   1  14   0.0050   0.0035   0.0114   0.0015  -0.0015  -0.0048  -0.01    3.5
2021/12/02 08:55:54.500   42.445884915   27.392181727    35.9256   1  14   0.0050   0.0035   0.0114   0.0015  -0.0014  -0.0048   0.01    3.5
2021/12/02 08:55:54.625   42.445884929   27.392181743    35.9233   1  14   0.0050   0.0035   0.0114   0.0015  -0.0014  -0.0048  -0.06    3.5
2021/12/02 08:55:54.750   42.445884919   27.392181738    35.9266   1  14   0.0050   0.0035   0.0114   0.0015  -0.0015  -0.0048  -0.04    3.5
2021/12/02 08:55:54.875   42.445884918   27.392181734    35.9214   1  14   0.0050   0.0035   0.0114   0.0015  -0.0015  -0.0048  -0.01    3.5
2021/12/02 08:55:55.000   42.445884928   27.392181731    35.9195   1  14   0.0050   0.0035   0.0114   0.0015  -0.0015  -0.0048   0.01    3.5
2021/12/02 08:55:55.125   42.445884933   27.392181731    35.9241   1  14   0.0050   0.0035   0.0114   0.0015  -0.0015  -0.0048  -0.06    3.5
2021/12/02 08:55:55.250   42.445884924   27.392181711    35.9230   1  14   0.0050   0.0035   0.0114   0.0015  -0.0015  -0.0048  -0.04    3.5
2021/12/02 08:55:55.375   42.445884942   27.392181747    35.9235   1  15   0.0051   0.0036   0.0115   0.0014  -0.0010  -0.0049  -0.01    3.5
2021/12/02 08:55:55.500   42.445884929   27.392181741    35.9202   1  14   0.0050   0.0035   0.0115   0.0014  -0.0011  -0.0049   0.01    3.5
2021/12/02 08:55:55.625   42.445884907   27.392181743    35.9230   1  14   0.0050   0.0035   0.0115   0.0015  -0.0013  -0.0048  -0.06    3.5
2021/12/02 08:55:55.750   42.445884933   27.392181731    35.9196   1  14   0.0050   0.0035   0.0115   0.0015  -0.0013  -0.0048  -0.04    3.5
2021/12/02 08:55:55.875   42.445884924   27.392181731    35.9211   1  14   0.0050   0.0035   0.0114   0.0015  -0.0014  -0.0048  -0.01    3.5
2021/12/02 08:55:56.000   42.445884922   27.392181727    35.9189   1  14   0.0050   0.0035   0.0114   0.0015  -0.0014  -0.0048   0.01    3.5
2021/12/02 08:55:56.125   42.445884917   27.392181734    35.9202   1  14   0.0050   0.0035   0.0114   0.0015  -0.0014  -0.0048  -0.06    3.5
2021/12/02 08:55:56.250   42.445884922   27.392181735    35.9164   1  14   0.0050   0.0035   0.0114   0.0015  -0.0014  -0.0048  -0.04    3.5
2021/12/02 08:55:56.375   42.445884913   27.392181751    35.9183   1  14   0.0050   0.0035   0.0114   0.0015  -0.0014  -0.0048  -0.01    3.5
2021/12/02 08:55:56.500   42.445884917   27.392181733    35.9230   1  14   0.0050   0.0035   0.0114   0.0015  -0.0014  -0.0048   0.01    3.5
2021/12/02 08:55:56.625   42.445884910   27.392181719    35.9213   1  14   0.0050   0.0035   0.0114   0.0015  -0.0014  -0.0048  -0.06    3.5
2021/12/02 08:55:56.750   42.445884930   27.392181741    35.9202   1  14   0.0050   0.0035   0.0114   0.0015  -0.0014  -0.0048  -0.04    3.5
2021/12/02 08:55:56.875   42.445884924   27.392181735    35.9224   1  14   0.0050   0.0035   0.0114   0.0015  -0.0014  -0.0048  -0.01    3.5
2021/12/02 08:55:57.000   42.445884932   27.392181748    35.9257   1  14   0.0050   0.0035   0.0114   0.0015  -0.0014  -0.0048   0.01    3.5
2021/12/02 08:55:57.125   42.445884897   27.392181746    35.9246   1  14   0.0050   0.0035   0.0114   0.0015  -0.0014  -0.0048  -0.06    3.5
2021/12/02 08:55:57.250   42.445884897   27.392181730    35.9265   1  15   0.0051   0.0036   0.0115   0.0014  -0.0010  -0.0049  -0.04    3.6
2021/12/02 08:55:57.375   42.445884899   27.392181727    35.9228   1  14   0.0050   0.0035   0.0115   0.0014  -0.0011  -0.0049  -0.01    3.6
2021/12/02 08:55:57.500   42.445884906   27.392181720    35.9273   1  14   0.0050   0.0035   0.0115   0.0015  -0.0013  -0.0048   0.01    3.6
2021/12/02 08:55:57.625   42.445884906   27.392181737    35.9265   1  14   0.0050   0.0035   0.0115   0.0015  -0.0013  -0.0048  -0.06    3.6
2021/12/02 08:55:57.750   42.445884897   27.392181709    35.9197   1  14   0.0050   0.0035   0.0114   0.0015  -0.0014  -0.0048  -0.04    3.6
2021/12/02 08:55:57.875   42.445884910   27.392181711    35.9191   1  14   0.0050   0.0035   0.0114   0.0015  -0.0014  -0.0048  -0.01    3.5
2021/12/02 08:55:58.000   42.445884920   27.392181717    35.9181   1  14   0.0050   0.0035   0.0114   0.0015  -0.0014  -0.0048   0.01    3.5
2021/12/02 08:55:58.125   42.445884910   27.392181720    35.9231   1  14   0.0050   0.0035   0.0114   0.0015  -0.0014  -0.0048  -0.06    3.5
2021/12/02 08:55:58.250   42.445884936   27.392181722    35.9159   1  14   0.0050   0.0035   0.0114   0.0015  -0.0014  -0.0048  -0.04    3.5
2021/12/02 08:55:58.375   42.445884933   27.392181724    35.9081   1  14   0.0050   0.0035   0.0114   0.0015  -0.0014  -0.0048  -0.01    3.5
2021/12/02 08:55:58.500   42.445884933   27.392181753    35.9155   1  14   0.0050   0.0035   0.0114   0.0015  -0.0014  -0.0048   0.01    3.5
2021/12/02 08:55:58.625   42.445884895   27.392181754    35.9187   1  13   0.0050   0.0035   0.0116   0.0015  -0.0017  -0.0046  -0.06    3.5
2021/12/02 08:55:58.750   42.445884895   27.392181750    35.9216   1  13   0.0050   0.0035   0.0116   0.0015  -0.0017  -0.0046  -0.04    3.5
2021/12/02 08:55:58.875   42.445884888   27.392181748    35.9200   1  14   0.0050   0.0035   0.0116   0.0015  -0.0017  -0.0046  -0.01    3.5
2021/12/02 08:55:59.000   42.445884892   27.392181721    35.9196   1  14   0.0050   0.0035   0.0116   0.0015  -0.0017  -0.0047   0.01    3.5
2021/12/02 08:55:59.125   42.445884900   27.392181731    35.9184   1  14   0.0050   0.0035   0.0116   0.0015  -0.0016  -0.0047  -0.06    3.5
2021/12/02 08:55:59.250   42.445884900   27.392181717    35.9171   1  14   0.0050   0.0035   0.0115   0.0015  -0.0016  -0.0047  -0.04    3.5
2021/12/02 08:55:59.375   42.445884909   27.392181735    35.9167   1  14   0.0050   0.0035   0.0115   0.0015  -0.0015  -0.0047  -0.01    3.5
2021/12/02 08:55:59.500   42.445884896   27.392181743    35.9174   1  14   0.0050   0.0035   0.0115   0.0015  -0.0015  -0.0047   0.01    3.5
2021/12/02 08:55:59.625   42.445884908   27.392181754    35.9183   1  14   0.0050   0.0035   0.0114   0.0015  -0.0015  -0.0047  -0.06    3.5
2021/12/02 08:55:59.750   42.445884898   27.392181753    35.9154   1  14   0.0050   0.0035   0.0114   0.0015  -0.0015  -0.0047  -0.04    3.5
2021/12/02 08:55:59.875   42.445884929   27.392181754    35.9148   1  14   0.0050   0.0035   0.0114   0.0015  -0.0015  -0.0047  -0.01    3.5
2021/12/02 08:56:00.000   42.445884930   27.392181749    35.9146   1  14   0.0050   0.0035   0.0114   0.0015  -0.0015  -0.0047   0.01    3.5
2021/12/02 08:56:00.125   42.445884890   27.392181755    35.9180   1  13   0.0051   0.0036   0.0117   0.0013  -0.0014  -0.0048  -0.06    3.5
2021/12/02 08:56:00.250   42.445884887   27.392181760    35.9192   1  15   0.0051   0.0036   0.0118   0.0013  -0.0014  -0.0048  -0.04    3.6
2021/12/02 08:56:00.375   42.445884876   27.392181746    35.9197   1  14   0.0050   0.0035   0.0117   0.0014  -0.0014  -0.0048  -0.01    3.6
2021/12/02 08:56:00.500   42.445884892   27.392181749    35.9220   1  14   0.0050   0.0035   0.0116   0.0015  -0.0014  -0.0048   0.01    3.6
2021/12/02 08:56:00.625   42.445884895   27.392181740    35.9188   1  14   0.0050   0.0035   0.0115   0.0015  -0.0014  -0.0048  -0.06    3.6
2021/12/02 08:56:00.750   42.445884902   27.392181767    35.9187   1  14   0.0050   0.0035   0.0115   0.0015  -0.0015  -0.0048  -0.04    3.6
2021/12/02 08:56:00.875   42.445884886   27.392181744    35.9215   1  14   0.0050   0.0035   0.0115   0.0015  -0.0015  -0.0048  -0.01    3.6
2021/12/02 08:56:01.000   42.445884895   27.392181749    35.9194   1  14   0.0050   0.0035   0.0115   0.0015  -0.0015  -0.0048   0.01    3.6
2021/12/02 08:56:01.125   42.445884897   27.392181765    35.9176   1  14   0.0050   0.0035   0.0115   0.0015  -0.0015  -0.0048  -0.06    3.6
2021/12/02 08:56:01.250   42.445884888   27.392181744    35.9185   1  15   0.0051   0.0036   0.0116   0.0013  -0.0011  -0.0049  -0.04    3.6
2021/12/02 08:56:01.375   42.445884901   27.392181751    35.9170   1  14   0.0050   0.0035   0.0115   0.0014  -0.0012  -0.0049  -0.01    3.6
2021/12/02 08:56:01.500   42.445884883   27.392181760    35.9158   1  14   0.0050   0.0035   0.0115   0.0015  -0.0013  -0.0048   0.01    3.6
2021/12/02 08:56:01.625   42.445884867   27.392181763    35.9189   1  13   0.0050   0.0035   0.0116   0.0014  -0.0016  -0.0047  -0.06    3.6
2021/12/02 08:56:01.750   42.445884896   27.392181771    35.9198   1  14   0.0050   0.0035   0.0115   0.0015  -0.0014  -0.0048  -0.04    3.6
2021/12/02 08:56:01.875   42.445884888   27.392181763    35.9187   1  14   0.0050   0.0035   0.0114   0.0015  -0.0014  -0.0048  -0.01    5.9
2021/12/02 08:56:02.000   42.445884897   27.392181745    35.9152   1  14   0.0050   0.0035   0.0114   0.0015  -0.0014  -0.0048   0.01    7.6
2021/12/02 08:56:02.125   42.445884889   27.392181752    35.9166   1  14   0.0051   0.0036   0.0117   0.0013  -0.0014  -0.0048  -0.06    9.3
2021/12/02 08:56:02.250   42.445884857   27.392181758    35.9180   1  14   0.0050   0.0036   0.0117   0.0014  -0.0014  -0.0048  -0.04   10.6
2021/12/02 08:56:02.375   42.445884875   27.392181731    35.9194   1  14   0.0050   0.0035   0.0116   0.0014  -0.0014  -0.0048  -0.01   10.6
2021/12/02 08:56:02.500   42.445884898   27.392181768    35.9238   1  15   0.0051   0.0036   0.0116   0.0013  -0.0012  -0.0049   0.01   10.7
2021/12/02 08:56:02.625   42.445884868   27.392181762    35.9247   1  15   0.0050   0.0035   0.0115   0.0015  -0.0014  -0.0048  -0.06   10.7
2021/12/02 08:56:02.750   42.445884886   27.392181766    35.9179   1  14   0.0050   0.0035   0.0115   0.0015  -0.0013  -0.0048  -0.04   10.8
2021/12/02 08:56:02.875   42.445884886   27.392181740    35.9144   1  15   0.0050   0.0035   0.0114   0.0016  -0.0016  -0.0047  -0.01   10.8
2021/12/02 08:56:03.000   42.445884886   27.392181767    35.9164   1  14   0.0050   0.0035   0.0114   0.0015  -0.0014  -0.0048   0.01   10.9
2021/12/02 08:56:03.125   42.445884883   27.392181757    35.9261   1  14   0.0050   0.0035   0.0115   0.0015  -0.0014  -0.0048  -0.06   10.9
2021/12/02 08:56:03.250   42.445884868   27.392181752    35.9241   1  14   0.0050   0.0035   0.0115   0.0015  -0.0014  -0.0048  -0.04   11.0
2021/12/02 08:56:03.375   42.445884870   27.392181749    35.9216   1  14   0.0050   0.0035   0.0114   0.0015  -0.0014  -0.0048  -0.01   11.0
2021/12/02 08:56:03.500   42.445884888   27.392181757    35.9181   1  15   0.0049   0.0035   0.0113   0.0016  -0.0017  -0.0046   0.01   11.1
2021/12/02 08:56:03.625   42.445884905   27.392181743    35.9212   1  14   0.0050   0.0035   0.0114   0.0015  -0.0015  -0.0047  -0.06   11.1
2021/12/02 08:56:03.750   42.445884881   27.392181756    35.9182   1  14   0.0050   0.0035   0.0114   0.0015  -0.0014  -0.0047  -0.04   11.2
2021/12/02 08:56:03.875   42.445884875   27.392181749    35.9172   1  14   0.0050   0.0035   0.0114   0.0015  -0.0014  -0.0047  -0.01   11.2
2021/12/02 08:56:04.000   42.445884872   27.392181747    35.9235   1  14   0.0050   0.0035   0.0114   0.0015  -0.0014  -0.0047   0.01   11.3
2021/12/02 08:56:04.125   42.445884847   27.392181727    35.9204   1  14   0.0050   0.0035   0.0114   0.0015  -0.0015  -0.0047  -0.06    3.9
2021/12/02 08:56:04.250   42.445884861   27.392181716    35.9244   1  14   0.0050   0.0035   0.0114   0.0015  -0.0015  -0.0047  -0.04    3.9
2021/12/02 08:56:04.375   42.445884852   27.392181728    35.9246   1  13   0.0051   0.0036   0.0117   0.0013  -0.0014  -0.0048  -0.01    4.0
2021/12/02 08:56:04.500   42.445884850   27.392181710    35.9235   1  13   0.0051   0.0036   0.0118   0.0012  -0.0014  -0.0048   0.01    4.0
2021/12/02 08:56:04.625   42.445884865   27.392181712    35.9215   1  13   0.0051   0.0036   0.0118   0.0012  -0.0014  -0.0048  -0.06    4.1
2021/12/02 08:56:04.750   42.445884864   27.392181721    35.9194   1  13   0.0051   0.0036   0.0118   0.0012  -0.0014  -0.0048  -0.04    4.1
2021/12/02 08:56:04.875   42.445884883   27.392181711    35.9149   1  14   0.0051   0.0036   0.0118   0.0012  -0.0014  -0.0048  -0.01    4.2
2021/12/02 08:56:05.000   42.445884865   27.392181706    35.9147   1  14   0.0051   0.0036   0.0117   0.0013  -0.0013  -0.0048   0.01    4.2
2021/12/02 08:56:05.125   42.445884869   27.392181732    35.9163   1  14   0.0050   0.0035   0.0116   0.0015  -0.0016  -0.0047  -0.06    4.3
2021/12/02 08:56:05.250   42.445884886   27.392181712    35.9204   1  14   0.0050   0.0035   0.0115   0.0015  -0.0015  -0.0047  -0.04    4.3
2021/12/02 08:56:05.375   42.445884860   27.392181722    35.9154   1  14   0.0050   0.0035   0.0115   0.0015  -0.0015  -0.0047  -0.01    4.4
2021/12/02 08:56:05.500   42.445884880   27.392181714    35.9207   1  14   0.0050   0.0036   0.0116   0.0013  -0.0011  -0.0049   0.01    4.4
2021/12/02 08:56:05.625   42.445884875   27.392181726    35.9224   1  15   0.0051   0.0036   0.0116   0.0013  -0.0011  -0.0049  -0.06    4.5
2021/12/02 08:56:05.750   42.445884869   27.392181715    35.9162   1  14   0.0051   0.0036   0.0117   0.0013  -0.0015  -0.0048  -0.04    4.5
2021/12/02 08:56:05.875   42.445884876   27.392181712    35.9205   1  13   0.0051   0.0036   0.0117   0.0013  -0.0014  -0.0048  -0.01    4.6
2021/12/02 08:56:06.000   42.445884873   27.392181737    35.9210   1  13   0.0051   0.0036   0.0118   0.0012  -0.0014  -0.0048   0.01    4.6
2021/12/02 08:56:06.125   42.445884886   27.392181725    35.9217   1  13   0.0050   0.0035   0.0116   0.0015  -0.0017  -0.0046  -0.06    4.7
2021/12/02 08:56:06.250   42.445884888   27.392181707    35.9176   1  13   0.0051   0.0036   0.0117   0.0013  -0.0014  -0.0048  -0.04    4.7
2021/12/02 08:56:06.375   42.445884913   27.392181721    35.9117   1  14   0.0051   0.0036   0.0118   0.0012  -0.0014  -0.0048  -0.01    4.8
2021/12/02 08:56:06.500   42.445884899   27.392181692    35.9133   1  14   0.0051   0.0036   0.0117   0.0013  -0.0013  -0.0048   0.01    4.8
2021/12/02 08:56:06.625   42.445884884   27.392181698    35.9175   1  14   0.0050   0.0035   0.0116   0.0015  -0.0016  -0.0047  -0.06    4.9
2021/12/02 08:56:06.750   42.445884900   27.392181695    35.9151   1  14   0.0050   0.0035   0.0115   0.0015  -0.0015  -0.0047  -0.04    4.9
2021/12/02 08:56:06.875   42.445884883   27.392181705    35.9148   1  14   0.0050   0.0035   0.0115   0.0015  -0.0015  -0.0047  -0.01    5.0
2021/12/02 08:56:07.000   42.445884893   27.392181706    35.9119   1  14   0.0050   0.0035   0.0114   0.0015  -0.0015  -0.0047   0.01    5.0
2021/12/02 08:56:07.125   42.445884893   27.392181728    35.9128   1  14   0.0050   0.0035   0.0114   0.0015  -0.0015  -0.0047  -0.06    5.0
2021/12/02 08:56:07.250   42.445884903   27.392181717    35.9096   1  14   0.0050   0.0035   0.0114   0.0015  -0.0015  -0.0047  -0.04    5.1
2021/12/02 08:56:07.375   42.445884898   27.392181720    35.9013   1  14   0.0050   0.0035   0.0114   0.0015  -0.0015  -0.0047  -0.01    5.1
2021/12/02 08:56:07.500   42.445884910   27.392181702    35.9036   1  14   0.0050   0.0035   0.0114   0.0015  -0.0015  -0.0047   0.01    5.2
2021/12/02 08:56:07.625   42.445884894   27.392181703    35.9059   1  14   0.0050   0.0035   0.0114   0.0015  -0.0015  -0.0047  -0.06    5.2
2021/12/02 08:56:07.750   42.445884906   27.392181692    35.9105   1  14   0.0050   0.0035   0.0114   0.0015  -0.0015  -0.0047  -0.04    5.3
2021/12/02 08:56:07.875   42.445884892   27.392181700    35.9077   1  14   0.0050   0.0035   0.0114   0.0015  -0.0015  -0.0047  -0.01    5.3
2021/12/02 08:56:08.000   42.445884901   27.392181692    35.9062   1  14   0.0050   0.0035   0.0114   0.0015  -0.0015  -0.0047   0.01    5.4
2021/12/02 08:56:08.125   42.445884901   27.392181701    35.9020   1  14   0.0050   0.0035   0.0114   0.0015  -0.0015  -0.0047  -0.06    5.4
2021/12/02 08:56:08.250   42.445884865   27.392181678    35.9107   1  14   0.0050   0.0035   0.0114   0.0015  -0.0015  -0.0047  -0.04    5.5
2021/12/02 08:56:08.375   42.445884890   27.392181699    35.9103   1  15   0.0050   0.0036   0.0115   0.0013  -0.0010  -0.0049  -0.01    5.5
2021/12/02 08:56:08.500   42.445884898   27.392181681    35.9142   1  15   0.0050   0.0035   0.0115   0.0015  -0.0013  -0.0048   0.01    5.5
2021/12/02 08:56:08.625   42.445884901   27.392181684    35.9120   1  15   0.0050   0.0035   0.0114   0.0015  -0.0015  -0.0047  -0.06    5.6
2021/12/02 08:56:08.750   42.445884904   27.392181705    35.9108   1  15   0.0050   0.0035   0.0113   0.0016  -0.0016  -0.0047  -0.04    5.6
2021/12/02 08:56:08.875   42.445884911   27.392181690    35.9090   1  15   0.0050   0.0035   0.0113   0.0016  -0.0017  -0.0046  -0.01    5.7
2021/12/02 08:56:09.000   42.445884907   27.392181694    35.9084   1  14   0.0050   0.0035   0.0114   0.0015  -0.0014  -0.0047   0.01    5.7
2021/12/02 08:56:09.125   42.445884911   27.392181672    35.9109   1  14   0.0050   0.0035   0.0114   0.0015  -0.0014  -0.0048  -0.06    5.8
2021/12/02 08:56:09.250   42.445884909   27.392181682    35.9091   1  14   0.0050   0.0035   0.0114   0.0015  -0.0014  -0.0047  -0.04    5.8
2021/12/02 08:56:09.375   42.445884908   27.392181671    35.9078   1  14   0.0050   0.0035   0.0114   0.0015  -0.0014  -0.0047  -0.01    5.8
2021/12/02 08:56:09.500   42.445884914   27.392181702    35.9082   1  15   0.0049   0.0035   0.0113   0.0016  -0.0017  -0.0046   0.01    5.9
2021/12/02 08:56:09.625   42.445884912   27.392181710    35.9056   1  14   0.0050   0.0035   0.0114   0.0015  -0.0014  -0.0047  -0.06    5.9
2021/12/02 08:56:09.750   42.445884899   27.392181686    35.9105   1  14   0.0050   0.0035   0.0114   0.0015  -0.0014  -0.0047  -0.04    6.0
2021/12/02 08:56:09.875   42.445884918   27.392181699    35.9093   1  14   0.0050   0.0035   0.0114   0.0015  -0.0014  -0.0047  -0.01    6.0
2021/12/02 08:56:10.000   42.445884906   27.392181692    35.9089   1  13   0.0050   0.0035   0.0116   0.0015  -0.0017  -0.0046   0.01    6.0
2021/12/02 08:56:10.125   42.445884959   27.392181701    35.9012   1  13   0.0050   0.0035   0.0116   0.0015  -0.0017  -0.0046  -0.06    3.7
2021/12/02 08:56:10.250   42.445884963   27.392181687    35.8961   1  14   0.0050   0.0035   0.0116   0.0015  -0.0017  -0.0046  -0.04    3.7
2021/12/02 08:56:10.375   42.445884971   27.392181669    35.8995   1  13   0.0050   0.0035   0.0116   0.0015  -0.0017  -0.0046  -0.01    3.7
2021/12/02 08:56:10.500   42.445884937   27.392181691    35.9007   1  14   0.0050   0.0035   0.0115   0.0015  -0.0016  -0.0047   0.01    3.8
2021/12/02 08:56:10.625   42.445884954   27.392181690    35.8963   1  14   0.0050   0.0035   0.0115   0.0015  -0.0016  -0.0047  -0.06    3.8
2021/12/02 08:56:10.750   42.445884959   27.392181683    35.8951   1  14   0.0050   0.0035   0.0115   0.0015  -0.0015  -0.0047  -0.04    3.9
2021/12/02 08:56:10.875   42.445884972   27.392181678    35.8939   1  14   0.0050   0.0035   0.0115   0.0015  -0.0015  -0.0047  -0.01    3.9
2021/12/02 08:56:11.000   42.445884958   27.392181685    35.8967   1  14   0.0050   0.0035   0.0114   0.0015  -0.0015  -0.0047   0.01    4.0
2021/12/02 08:56:11.125   42.445884944   27.392181701    35.8988   1  14   0.0050   0.0035   0.0114   0.0015  -0.0015  -0.0047  -0.06    4.0
2021/12/02 08:56:11.250   42.445884952   27.392181677    35.8998   1  14   0.0050   0.0035   0.0114   0.0015  -0.0015  -0.0047  -0.04    4.1
2021/12/02 08:56:11.375   42.445884965   27.392181693    35.8926   1  14   0.0050   0.0035   0.0114   0.0015  -0.0015  -0.0047  -0.01    4.1
2021/12/02 08:56:11.500   42.445884935   27.392181673    35.8999   1  14   0.0050   0.0035   0.0114   0.0015  -0.0015  -0.0047   0.01    4.2
2021/12/02 08:56:11.625   42.445884931   27.392181673    35.9031   1  14   0.0050   0.0035   0.0114   0.0015  -0.0015  -0.0047  -0.06    4.2
2021/12/02 08:56:11.750   42.445884928   27.392181684    35.9071   1  14   0.0050   0.0035   0.0114   0.0015  -0.0015  -0.0047  -0.04    4.3
2021/12/02 08:56:11.875   42.445884910   27.392181663    35.9070   1  14   0.0050   0.0035   0.0114   0.0015  -0.0015  -0.0047  -0.01    4.3
2021/12/02 08:56:12.000   42.445884943   27.392181681    35.8994   1  14   0.0050   0.0035   0.0114   0.0015  -0.0015  -0.0047   0.01    4.4
2021/12/02 08:56:12.125   42.445884952   27.392181675    35.8958   1  13   0.0050   0.0035   0.0116   0.0015  -0.0017  -0.0046  -0.06    4.4
2021/12/02 08:56:12.250   42.445884971   27.392181700    35.8932   1  14   0.0050   0.0035   0.0116   0.0015  -0.0017  -0.0046  -0.04    4.5
2021/12/02 08:56:12.375   42.445884955   27.392181686    35.8931   1  14   0.0050   0.0035   0.0116   0.0015  -0.0017  -0.0047  -0.01    4.5
2021/12/02 08:56:12.500   42.445884958   27.392181692    35.8960   1  14   0.0050   0.0035   0.0115   0.0015  -0.0016  -0.0047   0.01    4.6
2021/12/02 08:56:12.625   42.445884948   27.392181683    35.8997   1  14   0.0050   0.0035   0.0115   0.0015  -0.0015  -0.0047  -0.06    4.6
2021/12/02 08:56:12.750   42.445884959   27.392181690    35.8969   1  15   0.0050   0.0036   0.0116   0.0013  -0.0011  -0.0048  -0.04    4.6
2021/12/02 08:56:12.875   42.445884942   27.392181673    35.9032   1  15   0.0050   0.0035   0.0115   0.0014  -0.0013  -0.0048  -0.01    4.7
2021/12/02 08:56:13.000   42.445884943   27.392181680    35.9003   1  15   0.0050   0.0035   0.0114   0.0015  -0.0015  -0.0047   0.01    4.7
2021/12/02 08:56:13.125   42.445884933   27.392181685    35.9004   1  14   0.0050   0.0035   0.0114   0.0015  -0.0014  -0.0047  -0.06    4.8
2021/12/02 08:56:13.250   42.445884948   27.392181673    35.8982   1  14   0.0050   0.0035   0.0114   0.0015  -0.0014  -0.0047  -0.04    4.8
2021/12/02 08:56:13.375   42.445884949   27.392181676    35.9009   1  14   0.0050   0.0035   0.0114   0.0015  -0.0014  -0.0047  -0.01    4.9
2021/12/02 08:56:13.500   42.445884939   27.392181701    35.9025   1  14   0.0050   0.0035   0.0114   0.0015  -0.0014  -0.0047   0.01    4.9
2021/12/02 08:56:13.625   42.445884946   27.392181704    35.9032   1  14   0.0050   0.0035   0.0114   0.0015  -0.0014  -0.0047  -0.06    5.0
2021/12/02 08:56:13.750   42.445884938   27.392181687    35.9023   1  15   0.0050   0.0036   0.0115   0.0013  -0.0010  -0.0049  -0.04    5.0
2021/12/02 08:56:13.875   42.445884942   27.392181700    35.9009   1  14   0.0050   0.0035   0.0115   0.0014  -0.0011  -0.0048  -0.01    5.0
2021/12/02 08:56:14.000   42.445884948   27.392181684    35.8970   1  14   0.0050   0.0035   0.0115   0.0015  -0.0013  -0.0048   0.01    5.1
2021/12/02 08:56:14.125   42.445884934   27.392181688    35.8975   1  14   0.0050   0.0035   0.0116   0.0014  -0.0016  -0.0047  -0.06    5.1
2021/12/02 08:56:14.250   42.445884942   27.392181680    35.8966   1  14   0.0050   0.0035   0.0116   0.0015  -0.0016  -0.0047  -0.04    5.1
2021/12/02 08:56:14.375   42.445884953   27.392181699    35.8990   1  14   0.0050   0.0035   0.0115   0.0015  -0.0015  -0.0047  -0.01    5.2
2021/12/02 08:56:14.500   42.445884921   27.392181681    35.8992   1  14   0.0050   0.0035   0.0115   0.0015  -0.0015  -0.0047   0.01    5.2
2021/12/02 08:56:14.625   42.445884923   27.392181685    35.9015   1  14   0.0050   0.0035   0.0115   0.0015  -0.0015  -0.0047  -0.06    5.3
2021/12/02 08:56:14.750   42.445884937   27.392181677    35.9016   1  14   0.0050   0.0035   0.0114   0.0015  -0.0015  -0.0047  -0.04    5.3
2021/12/02 08:56:14.875   42.445884922   27.392181668    35.9052   1  14   0.0050   0.0035   0.0114   0.0015  -0.0015  -0.0047  -0.01    5.4
2021/12/02 08:56:15.000   42.445884920   27.392181676    35.9051   1  14   0.0050   0.0035   0.0114   0.0015  -0.0015  -0.0047   0.01    5.4
2021/12/02 08:56:15.125   42.445884939   27.392181684    35.9058   1  14   0.0050   0.0035   0.0114   0.0015  -0.0015  -0.0047  -0.06    5.5
2021/12/02 08:56:15.250   42.445884910   27.392181693    35.9057   1  14   0.0050   0.0035   0.0114   0.0015  -0.0015  -0.0047  -0.04    5.5
2021/12/02 08:56:15.375   42.445884919   27.392181688    35.9053   1  14   0.0050   0.0035   0.0114   0.0015  -0.0014  -0.0047  -0.01    5.6
2021/12/02 08:56:15.500   42.445884916   27.392181677    35.9040   1  14   0.0050   0.0035   0.0114   0.0015  -0.0014  -0.0047   0.01    5.6
2021/12/02 08:56:15.625   42.445884925   27.392181687    35.9045   1  14   0.0050   0.0035   0.0114   0.0015  -0.0014  -0.0047  -0.06    5.6
2021/12/02 08:56:15.750   42.445884917   27.392181681    35.9056   1  14   0.0050   0.0035   0.0114   0.0015  -0.0014  -0.0047  -0.04    5.7
2021/12/02 08:56:15.875   42.445884932   27.392181691    35.9027   1  14   0.0050   0.0035   0.0114   0.0015  -0.0014  -0.0047  -0.01    5.7
2021/12/02 08:56:16.000   42.445884918   27.392181701    35.9095   1  14   0.0050   0.0035   0.0114   0.0015  -0.0014  -0.0047   0.01    5.8
2021/12/02 08:56:16.125   42.445884919   27.392181696    35.9085   1  14   0.0050   0.0035   0.0114   0.0015  -0.0014  -0.0047  -0.06    5.8
2021/12/02 08:56:16.250   42.445884913   27.392181690    35.9118   1  14   0.0050   0.0035   0.0114   0.0015  -0.0014  -0.0047  -0.04    5.8
2021/12/02 08:56:16.375   42.445884896   27.392181682    35.9064   1  15   0.0050   0.0036   0.0115   0.0013  -0.0010  -0.0049  -0.01    5.9
2021/12/02 08:56:16.500   42.445884895   27.392181698    35.9125   1  15   0.0050   0.0035   0.0115   0.0015  -0.0013  -0.0048   0.01    5.9
2021/12/02 08:56:16.625   42.445884903   27.392181662    35.9126   1  15   0.0050   0.0035   0.0114   0.0015  -0.0015  -0.0047  -0.06    5.9
2021/12/02 08:56:16.750   42.445884908   27.392181691    35.9113   1  15   0.0050   0.0035   0.0113   0.0016  -0.0016  -0.0047  -0.04    6.0
2021/12/02 08:56:16.875   42.445884912   27.392181689    35.9088   1  15   0.0049   0.0035   0.0113   0.0016  -0.0016  -0.0046  -0.01    6.0
2021/12/02 08:56:17.000   42.445884897   27.392181669    35.9101   1  15   0.0049   0.0035   0.0112   0.0016  -0.0017  -0.0046   0.01    6.1
2021/12/02 08:56:17.125   42.445884899   27.392181686    35.9102   1  15   0.0049   0.0035   0.0112   0.0016  -0.0017  -0.0046  -0.06    6.1
2021/12/02 08:56:17.250   42.445884889   27.392181686    35.9110   1  15   0.0049   0.0035   0.0112   0.0016  -0.0017  -0.0046  -0.04    6.1
2021/12/02 08:56:17.375   42.445884900   27.392181693    35.9123   1  15   0.0049   0.0035   0.0112   0.0016  -0.0017  -0.0046  -0.01    6.2
