% program   : RTKPOST ver.demo5 b34d
% inp file  : D:\cab733eb-baa8-463f-b662-bfc61a0c9227\GNSS\18.11.2021\rover\1\2021-11-18-07-08-42.obs
% inp file  : D:\cab733eb-baa8-463f-b662-bfc61a0c9227\GNSS\18.11.2021\base\base-2021-11-07-22-23-03.obs
% inp file  : D:\cab733eb-baa8-463f-b662-bfc61a0c9227\GNSS\18.11.2021\base\base-2021-11-07-22-23-03.nav
% obs start : 2021/11/18 07:09:00.6 GPST (week2184 371340.6s)
% obs end   : 2021/11/18 07:18:51.0 GPST (week2184 371931.0s)
% pos mode  : Kinematic
% freqs     : L1+L2/E5b
% solution  : Forward
% elev mask : 15.0 deg
% dynamics  : on
% tidecorr  : off
% ionos opt : Broadcast
% tropo opt : Saastamoinen
% ephemeris : Broadcast
% navi sys  : GPS GLONASS Galileo
% amb res   : Fix and Hold
% amb glo   : Fix and Hold
% val thres : 3.0
% antenna1  :                       ( 0.0000  0.0000  0.1480)
% antenna2  :                       ( 0.0000  0.0000  2.0430)
% ref pos   : 42.265363173   27.764901456    50.7340
%
% (lat/lon/height=WGS84/ellipsoidal,Q=1:fix,2:float,3:sbas,4:dgps,5:single,6:ppp,ns=# of satellites)
%  GPST                  latitude(deg) longitude(deg)  height(m)   Q  ns   sdn(m)   sde(m)   sdu(m)  sdne(m)  sdeu(m)  sdun(m) age(s)  ratio    vn(m/s)    ve(m/s)    vu(m/s)      sdvn     sdve     sdvu    sdvne    sdveu    sdvun
2021/11/18 07:09:39.557   42.265388094   27.764900966    50.6862   1  16   0.0039   0.0038   0.0076   0.0015  -0.0023  -0.0020  -0.00   10.8    0.00167   -0.00463   -0.00670   0.07602  0.07586  0.07351  0.02236 -0.02089 -0.01822
2021/11/18 07:12:40.329   42.264597398   27.764544680    81.5077   1  16   0.0037   0.0035   0.0070   0.0008   0.0016   0.0011  -0.05    3.9   -1.44362   -0.42630   -0.20068   0.07482  0.07160  0.07030  0.01219  0.01567  0.01003
2021/11/18 07:12:40.924   42.264594234   27.764543686    81.3439   1  17   0.0037   0.0034   0.0070   0.0005   0.0016   0.0010  -0.03   19.7    0.17980    0.12619   -0.31307   0.07375  0.07111  0.07025  0.00628  0.01501  0.00835
2021/11/18 07:12:44.449   42.264627940   27.764604664    80.5172   1  17   0.0037   0.0035   0.0071   0.0007   0.0014   0.0011  -0.03   22.2    1.72430    2.34016   -0.12897   0.07379  0.07197  0.07078  0.00665  0.01279  0.00833
2021/11/18 07:12:44.844   42.264634133   27.764615883    80.4629   1  16   0.0037   0.0035   0.0071   0.0008   0.0015   0.0011  -0.05   22.5    1.75321    2.34532   -0.12695   0.07477  0.07245  0.07077  0.01216  0.01349  0.00980
2021/11/18 07:12:46.529   42.264661002   27.764663952    80.2593   1  16   0.0037   0.0035   0.0071   0.0008   0.0014   0.0011  -0.00    3.9    1.78328    2.36449   -0.08979   0.07483  0.07248  0.07076  0.01234  0.01353  0.00986
2021/11/18 07:12:47.124   42.264670523   27.764680913    80.2255   1  16   0.0037   0.0035   0.0071   0.0006   0.0013   0.0009  -0.00   23.9    1.79629    2.38689   -0.03088   0.07411  0.07113  0.07024  0.00297  0.00805  0.00339
2021/11/18 07:12:48.529   42.264692986   27.764721276    80.1810   1  17   0.0037   0.0035   0.0071   0.0008   0.0014   0.0010  -0.00   12.0    1.73856    2.35111   -0.02482   0.07457  0.07242  0.07059  0.01308  0.01397  0.00844
2021/11/18 07:12:48.929   42.264699283   27.764732686    80.1767   1  17   0.0037   0.0035   0.0071   0.0006   0.0014   0.0009  -0.03   12.6    1.73977    2.36706   -0.00240   0.07373  0.07168  0.07059  0.00753  0.01352  0.00776
2021/11/18 07:12:50.529   42.264724355   27.764778188    80.1033   1  16   0.0037   0.0035   0.0071   0.0008   0.0015   0.0011  -0.00   15.2    1.81032    2.37876   -0.10789   0.07467  0.07157  0.07035  0.01135  0.01594  0.01009
2021/11/18 07:12:51.124   42.264734119   27.764795294    80.0699   1  16   0.0037   0.0035   0.0070   0.0008   0.0016   0.0011  -0.00   16.0    1.83033    2.40216   -0.02055   0.07482  0.07162  0.07030  0.01208  0.01570  0.00995
2021/11/18 07:12:52.529   42.264756986   27.764835967    80.1211   1  18   0.0036   0.0033   0.0069  -0.0003   0.0013   0.0005  -0.00    3.4    1.81822    2.38636    0.08135   0.07309  0.06962  0.06922 -0.00872  0.01174 -0.00450
2021/11/18 07:12:53.124   42.264766500   27.764853170    80.1524   1  18   0.0036   0.0034   0.0069  -0.0005   0.0009  -0.0003  -0.00    4.5    1.73086    2.39531    0.01556   0.07305  0.07035  0.06955 -0.00887  0.00877 -0.00417
2021/11/18 07:12:54.534   42.264787993   27.764893934    80.2251   1  17   0.0037   0.0034   0.0070   0.0002   0.0005   0.0003  -0.00    8.7    1.67681    2.42047    0.07623   0.07404  0.07109  0.06995  0.00230  0.00833  0.00310
2021/11/18 07:12:55.124   42.264797021   27.764911273    80.2168   1  17   0.0037   0.0034   0.0069  -0.0002   0.0009   0.0005  -0.00   10.2    1.73350    2.38889   -0.06472   0.07419  0.07091  0.06982 -0.00308  0.00929  0.00509
2021/11/18 07:12:56.649   42.264820863   27.764954558    80.1428   1  17   0.0037   0.0034   0.0070   0.0001   0.0008   0.0004   0.02   14.7    1.72767    2.34087   -0.04324   0.07404  0.07108  0.06987  0.00152  0.00834  0.00289
2021/11/18 07:12:57.044   42.264826989   27.764965713    80.1263   1  16   0.0036   0.0034   0.0070   0.0001   0.0008   0.0004  -0.00   15.7    1.74282    2.30484   -0.03710   0.07404  0.07109  0.06987 -0.00139  0.00830  0.00291
2021/11/18 07:12:58.649   42.264852353   27.765011182    80.0522   1  16   0.0036   0.0034   0.0070  -0.0005   0.0008   0.0003   0.02   20.1    1.75680    2.34004   -0.07097   0.07307  0.07064  0.06998 -0.00971  0.00759 -0.00312
2021/11/18 07:12:59.044   42.264858509   27.765022364    80.0283   1  15   0.0037   0.0034   0.0070   0.0000   0.0009   0.0004  -0.00   21.2    1.72237    2.38123   -0.06221   0.07406  0.07110  0.06987 -0.00065  0.00837  0.00313
2021/11/18 07:13:00.649   42.264883579   27.765068645    79.9135   1  16   0.0036   0.0034   0.0070   0.0002   0.0007   0.0001   0.02    3.8    1.74958    2.39316   -0.05018   0.07469  0.07179  0.07013  0.01052  0.00503 -0.00239
2021/11/18 07:13:01.244   42.264892960   27.765085873    79.8906   1  18   0.0036   0.0034   0.0070  -0.0005   0.0008   0.0003   0.02   26.9    1.75041    2.38325   -0.03100   0.07306  0.07038  0.06981 -0.00882  0.00885 -0.00422
2021/11/18 07:13:02.769   42.264917287   27.765129085    79.9167   1  17   0.0036   0.0034   0.0070  -0.0005   0.0003  -0.0001  -0.05   31.2    1.77345    2.31825    0.04112   0.07382  0.07134  0.07079 -0.00546  0.00249  0.00163
2021/11/18 07:13:03.169   42.264923697   27.765140390    79.9248   1  16   0.0036   0.0034   0.0069   0.0001   0.0010   0.0003   0.02    3.5    1.78461    2.34324    0.01437   0.07400  0.07026  0.06954 -0.00214  0.01135  0.00293
2021/11/18 07:13:04.769   42.264949111   27.765186641    79.9644   1  17   0.0036   0.0034   0.0070   0.0000   0.0008   0.0003  -0.05    3.2    1.75480    2.33683    0.04298   0.07404  0.07109  0.06988 -0.00081  0.00838  0.00292
2021/11/18 07:13:05.369   42.264958432   27.765203528    79.9668   1  16   0.0036   0.0034   0.0070  -0.0001   0.0008   0.0003  -0.05    3.6    1.73383    2.34530   -0.00902   0.07364  0.07090  0.06988 -0.00640  0.00837  0.00286
2021/11/18 07:13:06.849   42.264979789   27.765241897    80.0870   1  17   0.0036   0.0034   0.0070  -0.0005   0.0008   0.0002  -0.05   34.3    0.91504    1.13866    0.10044   0.07309  0.07060  0.06976 -0.00955  0.00767 -0.00345
2021/11/18 07:13:07.244   42.264981630   27.765244533    80.1245   1  16   0.0036   0.0034   0.0070  -0.0001   0.0009   0.0003   0.02   34.5    0.14366   -0.07519    0.11242   0.07360  0.07078  0.06986 -0.00615  0.00845  0.00248
2021/11/18 07:13:13.049   42.265054777   27.765142987    79.6672   1  17   0.0036   0.0034   0.0069   0.0002   0.0011  -0.0003  -0.00    5.5    0.18415   -0.30001   -0.18288   0.07381  0.07021  0.06921  0.00396  0.01203 -0.00364
2021/11/18 07:13:13.444   42.265054030   27.765142657    79.6080   1  17   0.0036   0.0033   0.0069   0.0002   0.0012  -0.0003  -0.03    6.2   -0.46317    0.11267   -0.13959   0.07382  0.07021  0.06928  0.00395  0.01203 -0.00332
2021/11/18 07:13:16.734   42.265020837   27.765079349    79.5093   1  18   0.0036   0.0034   0.0069  -0.0005   0.0009  -0.0003   0.02   11.6   -1.66953   -2.43934   -0.06818   0.07304  0.07035  0.06958 -0.00900  0.00890 -0.00445
2021/11/18 07:13:17.324   42.265011816   27.765061754    79.4582   1  18   0.0036   0.0034   0.0069  -0.0005   0.0009  -0.0004  -0.05   12.7   -1.74654   -2.45109   -0.10372   0.07302  0.07036  0.06971 -0.00917  0.00891 -0.00439
2021/11/18 07:13:18.734   42.264989299   27.765020386    79.2951   1  16   0.0036   0.0034   0.0070  -0.0001   0.0009   0.0003   0.02   15.0   -1.79107   -2.43155   -0.07722   0.07367  0.07012  0.06943 -0.00632  0.01185  0.00294
2021/11/18 07:13:19.124   42.264983102   27.765008852    79.2726   1  17   0.0036   0.0034   0.0069  -0.0001   0.0011   0.0003  -0.00   15.7   -1.74415   -2.43688   -0.02263   0.07405  0.07028  0.06939 -0.00228  0.01162  0.00279
2021/11/18 07:13:20.734   42.264958099   27.764961944    79.3477   1  17   0.0036   0.0033   0.0069  -0.0005   0.0010  -0.0002   0.02   18.4   -1.75897   -2.43578    0.12047   0.07305  0.06983  0.06936 -0.00985  0.01108 -0.00365
2021/11/18 07:13:21.124   42.264951996   27.764950555    79.3674   1  18   0.0036   0.0034   0.0070  -0.0005   0.0008  -0.0003  -0.00   19.1   -1.72744   -2.43892    0.01434   0.07304  0.07036  0.06962 -0.00924  0.00904 -0.00450
2021/11/18 07:13:22.849   42.264925504   27.764899731    79.4095   1  17   0.0036   0.0033   0.0069   0.0002   0.0012  -0.0003  -0.05   22.0   -1.75405   -2.42132    0.01039   0.07378  0.07019  0.06923  0.00369  0.01208 -0.00378
2021/11/18 07:13:23.444   42.264915946   27.764882298    79.4185   1  18   0.0036   0.0033   0.0069  -0.0003   0.0012  -0.0004  -0.03   23.1   -1.77819   -2.39552   -0.00474   0.07307  0.07007  0.06943 -0.00904  0.01112 -0.00444
2021/11/18 07:13:24.849   42.264894167   27.764841054    79.4651   1  17   0.0036   0.0034   0.0069   0.0002   0.0011  -0.0003  -0.05   25.5   -1.73495   -2.43341    0.00706   0.07375  0.07017  0.06924  0.00311  0.01210 -0.00384
2021/11/18 07:13:25.244   42.264888001   27.764829560    79.4610   1  17   0.0036   0.0034   0.0069   0.0002   0.0011  -0.0003   0.02   26.3   -1.71272   -2.39737   -0.04770   0.07377  0.07018  0.06923  0.00361  0.01209 -0.00380
2021/11/18 07:13:26.849   42.264862516   27.764783356    79.4105   1  17   0.0036   0.0033   0.0069  -0.0005   0.0010  -0.0003  -0.05    4.9   -1.76579   -2.34088   -0.04882   0.07305  0.06984  0.06937 -0.00994  0.01110 -0.00369
2021/11/18 07:13:27.244   42.264856159   27.764772044    79.4013   1  17   0.0036   0.0034   0.0069   0.0001   0.0011   0.0002   0.02   30.0   -1.81346   -2.36534    0.00024   0.07374  0.07017  0.06924  0.00291  0.01216 -0.00395
2021/11/18 07:13:28.929   42.264829242   27.764723503    79.3603   1  18   0.0036   0.0033   0.0069  -0.0004   0.0012  -0.0003  -0.03   33.3   -1.79465   -2.38458   -0.02622   0.07361  0.07006  0.06926 -0.00349  0.01205 -0.00408
2021/11/18 07:13:29.524   42.264819698   27.764706272    79.3378   1  16   0.0036   0.0033   0.0069   0.0002   0.0012  -0.0003  -0.00   34.4   -1.76139   -2.40881    0.00460   0.07377  0.07018  0.06922  0.00292  0.01211 -0.00387
2021/11/18 07:13:30.934   42.264797209   27.764665493    79.3559   1  16   0.0036   0.0033   0.0069  -0.0002   0.0012   0.0003  -0.03   37.1   -1.74076   -2.38165   -0.02965   0.07369  0.07012  0.06943 -0.00650  0.01172  0.00288
2021/11/18 07:13:31.524   42.264787926   27.764648403    79.3429   1  16   0.0036   0.0033   0.0069  -0.0006   0.0011   0.0004  -0.00   38.3   -1.74286   -2.40878   -0.04083   0.07321  0.06990  0.06951 -0.01055  0.01055  0.00268
2021/11/18 07:13:32.974   42.264765110   27.764605923    79.3262   1  18   0.0036   0.0033   0.0069  -0.0006   0.0011   0.0004  -0.03   40.8   -1.73548   -2.42492    0.01514   0.07322  0.06990  0.06953 -0.01044  0.01072  0.00245
2021/11/18 07:13:33.369   42.264758987   27.764594365    79.3251   1  17   0.0036   0.0033   0.0069  -0.0006   0.0011  -0.0002  -0.05   41.5   -1.72892   -2.41397   -0.01450   0.07305  0.06983  0.06937 -0.00999  0.01114 -0.00379
2021/11/18 07:13:34.974   42.264733881   27.764547211    79.3355   1  17   0.0036   0.0033   0.0069   0.0001   0.0012  -0.0003  -0.03   44.8   -1.76569   -2.44267    0.01544   0.07380  0.07021  0.06926  0.00329  0.01215 -0.00388
2021/11/18 07:13:35.369   42.264727637   27.764535694    79.3444   1  17   0.0036   0.0033   0.0069   0.0002   0.0012  -0.0003  -0.05   45.5   -1.77928   -2.39306    0.02620   0.07377  0.07019  0.06924  0.00327  0.01214 -0.00392
2021/11/18 07:13:36.974   42.264702533   27.764489157    79.3791   1  17   0.0036   0.0033   0.0069   0.0001   0.0012  -0.0003  -0.03   48.7   -1.70402   -2.40044    0.05042   0.07379  0.07020  0.06926  0.00301  0.01217 -0.00386
2021/11/18 07:13:37.369   42.264696446   27.764477689    79.3958   1  17   0.0036   0.0033   0.0069  -0.0004   0.0012  -0.0001  -0.05   49.5   -1.73414   -2.38692    0.05029   0.07306  0.06973  0.06935 -0.00958  0.01118 -0.00390
2021/11/18 07:13:39.049   42.264672070   27.764432332    79.4151   1  18   0.0036   0.0033   0.0069  -0.0006   0.0012   0.0002  -0.00   53.3   -0.94306   -1.15620    0.04470   0.07303  0.06959  0.06932 -0.00942  0.01199 -0.00464
2021/11/18 07:13:39.444   42.264670144   27.764429728    79.4184   1  16   0.0036   0.0033   0.0069  -0.0006   0.0011  -0.0003  -0.03   54.0   -0.14780    0.01394    0.02842   0.07307  0.06985  0.06939 -0.01006  0.01119 -0.00383
2021/11/18 07:13:45.249   42.264748413   27.764334422    79.3011   1  17   0.0036   0.0033   0.0069  -0.0006   0.0012  -0.0003   0.02    4.1    0.16280   -0.26246   -0.28036   0.07306  0.06978  0.06941 -0.00983  0.01136 -0.00400
2021/11/18 07:13:45.844   42.264746944   27.764334547    79.1910   1  17   0.0036   0.0034   0.0070  -0.0004   0.0009  -0.0001  -0.05   65.9   -0.39808    0.11436   -0.15583   0.07307  0.07066  0.06990 -0.01005  0.00781 -0.00376
2021/11/18 07:13:48.929   42.264778906   27.764392965    79.5589   1  18   0.0036   0.0033   0.0069  -0.0005   0.0010  -0.0004  -0.03    5.5    1.74292    2.29953    0.11549   0.07303  0.07023  0.06961 -0.00955  0.01031 -0.00457
2021/11/18 07:13:49.324   42.264785045   27.764404001    79.6140   1  18   0.0036   0.0033   0.0069  -0.0006   0.0011  -0.0005  -0.05    5.9    1.72447    2.32020    0.12281   0.07301  0.06957  0.06936 -0.00952  0.01185 -0.00470
2021/11/18 07:13:50.929   42.264809880   27.764450179    79.8082   1  17   0.0036   0.0033   0.0069  -0.0006   0.0011  -0.0004  -0.03    7.8    1.70777    2.41726    0.11379   0.07309  0.06987  0.06943 -0.01007  0.01122 -0.00386
2021/11/18 07:13:51.524   42.264818954   27.764467589    79.8705   1  17   0.0036   0.0034   0.0069  -0.0006   0.0009  -0.0004  -0.00    8.4    1.67046    2.39525    0.08612   0.07357  0.07043  0.06969 -0.00712  0.00907 -0.00369
2021/11/18 07:13:52.929   42.264840361   27.764508390    79.9151   1  14   0.0037   0.0034   0.0070  -0.0002   0.0008  -0.0002  -0.03    9.5    1.70634    2.38486    0.02884   0.07665  0.07347  0.07017 -0.00805  0.00382 -0.00547
2021/11/18 07:13:53.524   42.264849518   27.764525559    79.9278   1  10   0.0042   0.0038   0.0081   0.0003   0.0004  -0.0004  -0.00   14.5    1.71940    2.39379    0.01232   0.07860  0.07499  0.07647 -0.00609  0.00581 -0.00243
2021/11/18 07:13:55.049   42.264873775   27.764570119    80.0255   1  16   0.0036   0.0034   0.0070  -0.0002   0.0009   0.0002  -0.00   71.7    1.81100    2.38991    0.08431   0.07398  0.07110  0.06993 -0.00385  0.00863  0.00151
2021/11/18 07:13:55.644   42.264883461   27.764587328    80.0853   1  17   0.0036   0.0033   0.0069  -0.0006   0.0010  -0.0003   0.02   71.7    1.78102    2.38980    0.12353   0.07303  0.06986  0.06944 -0.01025  0.01143 -0.00403
2021/11/18 07:13:57.049   42.264905606   27.764628036    80.2344   1  17   0.0036   0.0034   0.0070  -0.0006   0.0008  -0.0004  -0.00   71.9    1.74451    2.38426    0.09830   0.07305  0.07066  0.06980 -0.01030  0.00813 -0.00395
2021/11/18 07:13:57.644   42.264914851   27.764645292    80.2843   1  18   0.0036   0.0033   0.0069  -0.0006   0.0011  -0.0003   0.02   71.8    1.70718    2.36702    0.08011   0.07303  0.06983  0.06940 -0.01027  0.01125 -0.00404
2021/11/18 07:13:59.049   42.264936672   27.764685797    80.3447   1  18   0.0036   0.0033   0.0069  -0.0005   0.0012  -0.0004  -0.00    4.2    1.73120    2.39750    0.04619   0.07350  0.06998  0.06924 -0.00548  0.01209 -0.00468
2021/11/18 07:13:59.444   42.264942824   27.764697412    80.3505   1  17   0.0036   0.0033   0.0069  -0.0006   0.0012  -0.0005  -0.03    4.7    1.73133    2.44555    0.00514   0.07303  0.06958  0.06928 -0.00964  0.01207 -0.00478
2021/11/18 07:14:01.049   42.264967970   27.764744134    80.2865   1  16   0.0036   0.0034   0.0069  -0.0002   0.0009   0.0001  -0.00    6.6    1.72191    2.42082   -0.08862   0.07389  0.07062  0.06975 -0.00312  0.00945 -0.00114
2021/11/18 07:14:01.444   42.264974050   27.764755608    80.2584   1  17   0.0036   0.0034   0.0069   0.0001   0.0010  -0.0004  -0.03    7.0    1.73123    2.39581   -0.08749   0.07349  0.07077  0.06982 -0.00586  0.00932 -0.00442
2021/11/18 07:14:03.174   42.265001053   27.764805781    80.1421   1  16   0.0036   0.0034   0.0069  -0.0002   0.0011   0.0002   0.02   71.6    1.75785    2.39113   -0.00642   0.07396  0.07024  0.06943 -0.00399  0.01185  0.00188
2021/11/18 07:14:03.569   42.265007409   27.764817248    80.1375   1  18   0.0036   0.0033   0.0069  -0.0001   0.0012  -0.0003  -0.00   71.6    1.77945    2.40807   -0.01003   0.07379  0.07020  0.06932  0.00185  0.01229 -0.00419
2021/11/18 07:14:05.175   42.265033106   27.764864627    80.1525   1  18   0.0036   0.0033   0.0069  -0.0005   0.0012  -0.0005   0.02   71.4    1.78221    2.41565   -0.00602   0.07301  0.06957  0.06926 -0.00957  0.01207 -0.00490
2021/11/18 07:14:05.569   42.265039456   27.764876187    80.1458   1  17   0.0036   0.0033   0.0069  -0.0006   0.0012  -0.0005  -0.00   71.3    1.78549    2.41803   -0.01275   0.07302  0.07005  0.06928 -0.00972  0.01141 -0.00485
2021/11/18 07:14:07.134   42.265064389   27.764921927    80.0898   1  17   0.0036   0.0034   0.0070  -0.0006   0.0008  -0.0004   0.02   71.3    1.75372    2.42169   -0.02342   0.07302  0.07065  0.06991 -0.01040  0.00797 -0.00406
2021/11/18 07:14:07.724   42.265073835   27.764939301    80.0478   1  17   0.0036   0.0034   0.0070  -0.0006   0.0008  -0.0004   0.02   71.3    1.79261    2.42708   -0.08387   0.07302  0.07065  0.06991 -0.01041  0.00798 -0.00406
2021/11/18 07:14:09.129   42.265096108   27.764980333    79.9717   1  18   0.0036   0.0034   0.0070  -0.0006   0.0009  -0.0002   0.02   71.1    1.74065    2.38171   -0.04872   0.07301  0.07037  0.06985 -0.00973  0.00929 -0.00470
2021/11/18 07:14:09.724   42.265105386   27.764997652    79.9639   1  16   0.0036   0.0034   0.0070  -0.0003   0.0009   0.0002   0.02   71.0    1.73963    2.37055   -0.01311   0.07351  0.07044  0.06989 -0.00737  0.00923 -0.00125
2021/11/18 07:14:11.130   42.265126471   27.765036089    79.9928   1  17   0.0036   0.0034   0.0070  -0.0006   0.0008  -0.0004   0.02    4.4    1.09919    1.38280    0.04470   0.07302  0.07065  0.06991 -0.01044  0.00799 -0.00411
2021/11/18 07:14:11.724   42.265129094   27.765039812    80.0310   1  18   0.0036   0.0034   0.0069  -0.0006   0.0009  -0.0004   0.02   71.1   -0.00734   -0.22894    0.05947   0.07299  0.07036  0.06976 -0.00980  0.00924 -0.00489
2021/11/18 07:14:17.330   42.265201409   27.764941470    79.6671   1  17   0.0036   0.0034   0.0070  -0.0006   0.0007  -0.0004  -0.05   75.5    0.51643   -0.40273   -0.12883   0.07302  0.06985  0.06970 -0.01045  0.01148 -0.00423
2021/11/18 07:14:17.924   42.265201049   27.764941086    79.6517   1  17   0.0036   0.0033   0.0069  -0.0006   0.0011  -0.0004  -0.03    8.7   -0.31821    0.09162    0.00975   0.07305  0.06985  0.06943 -0.01047  0.01133 -0.00421
2021/11/18 07:14:21.050   42.265168026   27.764878710    79.7443   1  18   0.0036   0.0033   0.0069  -0.0006   0.0012  -0.0004  -0.00   78.1   -1.76486   -2.42847   -0.03564   0.07301  0.06957  0.06926 -0.00989  0.01216 -0.00498
2021/11/18 07:14:21.444   42.265161740   27.764867092    79.7312   1  18   0.0036   0.0033   0.0069  -0.0006   0.0012  -0.0005  -0.03   78.4   -1.76026   -2.43255   -0.03000   0.07302  0.06958  0.06930 -0.00990  0.01218 -0.00496
2021/11/18 07:14:23.050   42.265136386   27.764819889    79.6379   1  18   0.0036   0.0033   0.0069  -0.0006   0.0012  -0.0005  -0.00   79.4   -1.71813   -2.40822   -0.01032   0.07301  0.06957  0.06927 -0.00992  0.01217 -0.00500
2021/11/18 07:14:23.444   42.265130299   27.764808344    79.6268   1  18   0.0036   0.0033   0.0069  -0.0006   0.0012  -0.0005  -0.03   79.7   -1.70439   -2.41171   -0.03050   0.07302  0.06958  0.06930 -0.00992  0.01219 -0.00498
2021/11/18 07:14:25.130   42.265104350   27.764759288    79.5497   1  18   0.0036   0.0033   0.0069  -0.0006   0.0012  -0.0005   0.02   81.0   -1.67202   -2.40785   -0.07436   0.07298  0.06955  0.06927 -0.00994  0.01218 -0.00503
2021/11/18 07:14:25.729   42.265095116   27.764741774    79.4885   1  18   0.0036   0.0033   0.0069  -0.0006   0.0012  -0.0005   0.02    3.4   -1.75026   -2.41293   -0.11513   0.07298  0.06955  0.06927 -0.00994  0.01218 -0.00503
2021/11/18 07:14:27.130   42.265072984   27.764701104    79.3846   1  18   0.0036   0.0033   0.0069  -0.0006   0.0012  -0.0005   0.02   82.6   -1.72000   -2.40432   -0.01370   0.07298  0.06955  0.06927 -0.00996  0.01219 -0.00504
2021/11/18 07:14:27.524   42.265066772   27.764689531    79.3734   1  18   0.0036   0.0033   0.0069  -0.0006   0.0012  -0.0005  -0.00   82.9   -1.73047   -2.41710   -0.02736   0.07301  0.06957  0.06927 -0.00997  0.01219 -0.00504
2021/11/18 07:14:29.130   42.265041521   27.764642810    79.3477   1  18   0.0036   0.0033   0.0069  -0.0006   0.0012  -0.0005   0.02   84.0   -1.76823   -2.37376    0.00830   0.07298  0.06955  0.06928 -0.00998  0.01220 -0.00506
2021/11/18 07:14:29.729   42.265031986   27.764625524    79.3469   1  18   0.0036   0.0033   0.0069  -0.0006   0.0012  -0.0005   0.02   84.5   -1.76927   -2.36664   -0.01628   0.07298  0.06955  0.06928 -0.00999  0.01220 -0.00506
2021/11/18 07:14:31.130   42.265010086   27.764585203    79.3989   1  18   0.0036   0.0033   0.0069  -0.0006   0.0012  -0.0005   0.02   85.8   -1.71944   -2.40017    0.00499   0.07298  0.06955  0.06928 -0.01001  0.01221 -0.00508
2021/11/18 07:14:31.724   42.265000978   27.764568013    79.4016   1  18   0.0036   0.0033   0.0069  -0.0006   0.0012  -0.0005   0.02   86.2   -1.69399   -2.39186    0.01598   0.07298  0.06955  0.06928 -0.01001  0.01221 -0.00508
2021/11/18 07:14:33.130   42.264979039   27.764527269    79.4480   1  18   0.0036   0.0033   0.0069  -0.0006   0.0012  -0.0005   0.02   87.2   -1.75536   -2.41951    0.03584   0.07298  0.06955  0.06928 -0.01003  0.01222 -0.00509
2021/11/18 07:14:33.524   42.264972934   27.764515783    79.4622   1  18   0.0036   0.0033   0.0069  -0.0006   0.0012  -0.0005  -0.00   87.5   -1.72011   -2.38621    0.02310   0.07301  0.06957  0.06927 -0.01004  0.01222 -0.00509
2021/11/18 07:14:35.130   42.264948023   27.764469521    79.4969   1  18   0.0036   0.0033   0.0069  -0.0006   0.0012  -0.0005   0.02   88.8   -1.75869   -2.38665    0.03048   0.07298  0.06955  0.06928 -0.01005  0.01223 -0.00511
2021/11/18 07:14:35.729   42.264938669   27.764452132    79.5038   1  18   0.0036   0.0033   0.0069  -0.0006   0.0012  -0.0005   0.02   89.0   -1.76110   -2.40322    0.01707   0.07298  0.06955  0.06928 -0.01006  0.01223 -0.00511
2021/11/18 07:14:37.250   42.264915086   27.764408142    79.5375   1  18   0.0036   0.0033   0.0069  -0.0006   0.0013  -0.0005  -0.05   90.2   -1.68347   -2.39846    0.01051   0.07299  0.06956  0.06928 -0.01008  0.01224 -0.00512
2021/11/18 07:14:37.844   42.264905922   27.764390725    79.5255   1  18   0.0036   0.0033   0.0069  -0.0006   0.0010  -0.0005  -0.05   90.5   -1.70161   -2.42605   -0.04512   0.07299  0.06993  0.06962 -0.01009  0.01002 -0.00512
2021/11/18 07:14:39.250   42.264884403   27.764349327    79.5257   1  17   0.0036   0.0033   0.0069  -0.0006   0.0012  -0.0005  -0.05    4.1   -1.71784   -2.39525    0.02032   0.07298  0.06956  0.06929 -0.01010  0.01225 -0.00514
2021/11/18 07:14:39.644   42.264878248   27.764337788    79.5303   1  18   0.0036   0.0034   0.0069  -0.0001   0.0010  -0.0005   0.02    3.2   -1.73465   -2.41734    0.01066   0.07372  0.07055  0.06962 -0.00217  0.01021 -0.00476
2021/11/18 07:14:41.250   42.264853217   27.764290839    79.5343   1  18   0.0036   0.0033   0.0069  -0.0006   0.0012  -0.0005  -0.05    5.7   -1.75504   -2.41191   -0.01492   0.07298  0.06955  0.06929 -0.01012  0.01226 -0.00515
2021/11/18 07:14:41.844   42.264843720   27.764273471    79.5369   1  18   0.0036   0.0033   0.0069  -0.0006   0.0012  -0.0005  -0.05    6.3   -1.78372   -2.41124    0.01560   0.07298  0.06955  0.06929 -0.01013  0.01226 -0.00516
2021/11/18 07:14:43.250   42.264823004   27.764235710    79.6013   1  17   0.0036   0.0033   0.0069  -0.0007   0.0011  -0.0002  -0.05   94.0   -1.02837   -1.32570    0.06013   0.07301  0.06983  0.06947 -0.01072  0.01146 -0.00453
2021/11/18 07:14:43.644   42.264820915   27.764232413    79.5942   1  18   0.0036   0.0033   0.0069  -0.0006   0.0012  -0.0005   0.02   94.5   -0.16952   -0.12592   -0.04263   0.07298  0.06956  0.06930 -0.01016  0.01232 -0.00522
2021/11/18 07:14:49.530   42.264898309   27.764138561    79.6702   1  17   0.0036   0.0033   0.0069  -0.0007   0.0011  -0.0004  -0.00   98.2    0.06055   -0.09786   -0.22109   0.07301  0.06971  0.06940 -0.01051  0.01161 -0.00469
2021/11/18 07:14:50.124   42.264897077   27.764139376    79.5852   1  17   0.0036   0.0034   0.0070  -0.0007   0.0008  -0.0005  -0.00   97.9   -0.26920    0.14799   -0.11085   0.07302  0.07027  0.06980 -0.01081  0.00872 -0.00454
2021/11/18 07:14:53.130   42.264929015   27.764196610    79.9048   1  18   0.0036   0.0033   0.0069  -0.0007   0.0012  -0.0005   0.02   97.1    1.76462    2.24751    0.13393   0.07297  0.06955  0.06930 -0.01025  0.01232 -0.00525
2021/11/18 07:14:53.524   42.264935262   27.764207650    79.9724   1  18   0.0036   0.0033   0.0069  -0.0007   0.0012  -0.0005  -0.00   97.0    1.75317    2.34474    0.18160   0.07300  0.06957  0.06929 -0.01026  0.01232 -0.00525
2021/11/18 07:14:55.130   42.264960432   27.764253127    80.1626   1  18   0.0036   0.0033   0.0069  -0.0007   0.0012  -0.0005   0.02   96.8    1.77152    2.36085    0.10234   0.07297  0.06955  0.06930 -0.01028  0.01232 -0.00527
2021/11/18 07:14:55.525   42.264966711   27.764264369    80.1994   1  18   0.0036   0.0033   0.0069  -0.0007   0.0012  -0.0005  -0.00   96.8    1.76637    2.35968    0.07384   0.07300  0.06957  0.06929 -0.01028  0.01233 -0.00526
2021/11/18 07:14:57.130   42.264991979   27.764311139    80.2836   1  18   0.0036   0.0033   0.0069  -0.0007   0.0010  -0.0005   0.02   96.1    1.76501    2.42833   -0.01147   0.07297  0.07036  0.06979 -0.01030  0.00948 -0.00527
2021/11/18 07:14:57.725   42.265001307   27.764328512    80.2808   1  18   0.0036   0.0033   0.0069  -0.0007   0.0010  -0.0005   0.02   96.1    1.74847    2.41329   -0.02625   0.07297  0.07037  0.06979 -0.01030  0.00950 -0.00528
2021/11/18 07:14:59.250   42.265025431   27.764372854    80.2196   1  18   0.0036   0.0033   0.0069  -0.0007   0.0010  -0.0005  -0.05   95.7    1.76566    2.42126   -0.01508   0.07298  0.07037  0.06980 -0.01032  0.00951 -0.00528
2021/11/18 07:14:59.645   42.265031687   27.764384316    80.1962   1  18   0.0036   0.0033   0.0069  -0.0007   0.0010  -0.0005   0.02   95.6    1.76637    2.38025   -0.07690   0.07297  0.07037  0.06980 -0.01033  0.00951 -0.00529
2021/11/18 07:15:01.250   42.265057354   27.764430865    80.1553   1  18   0.0036   0.0033   0.0069  -0.0007   0.0012  -0.0005  -0.05   95.0    1.80872    2.42009   -0.00527   0.07298  0.06955  0.06932 -0.01035  0.01237 -0.00532
2021/11/18 07:15:01.845   42.265066898   27.764448205    80.1754   1  18   0.0036   0.0033   0.0069  -0.0007   0.0012  -0.0005  -0.05   94.8    1.79186    2.40554    0.05888   0.07298  0.06955  0.06931 -0.01035  0.01236 -0.00532
2021/11/18 07:15:03.250   42.265089572   27.764489268    80.2257   1  18   0.0036   0.0033   0.0069  -0.0007   0.0013  -0.0006  -0.05   94.2    1.77053    2.38574    0.03783   0.07297  0.06955  0.06931 -0.01037  0.01237 -0.00533
2021/11/18 07:15:03.845   42.265099024   27.764506491    80.2430   1  18   0.0036   0.0033   0.0069  -0.0007   0.0013  -0.0006  -0.05   94.0    1.74128    2.37782    0.04396   0.07297  0.06955  0.06931 -0.01037  0.01237 -0.00533
2021/11/18 07:15:05.250   42.265121283   27.764547226    80.2574   1  18   0.0036   0.0033   0.0069  -0.0007   0.0012  -0.0006  -0.05   93.4    1.72712    2.37968    0.00765   0.07297  0.06955  0.06931 -0.01039  0.01238 -0.00535
2021/11/18 07:15:05.645   42.265127479   27.764558657    80.2510   1  18   0.0036   0.0033   0.0069  -0.0007   0.0012  -0.0006   0.02   93.3    1.73708    2.36036   -0.02936   0.07297  0.06954  0.06931 -0.01039  0.01238 -0.00535
2021/11/18 07:15:07.250   42.265152811   27.764604704    80.2447   1  18   0.0036   0.0033   0.0069  -0.0007   0.0012  -0.0006  -0.05   92.7    1.77318    2.35966   -0.02304   0.07297  0.06955  0.06931 -0.01041  0.01239 -0.00536
2021/11/18 07:15:07.845   42.265162187   27.764621851    80.2271   1  18   0.0036   0.0033   0.0069  -0.0007   0.0013  -0.0006  -0.05   92.4    1.74158    2.37845   -0.03865   0.07297  0.06955  0.06931 -0.01042  0.01239 -0.00537
2021/11/18 07:15:09.250   42.265183447   27.764662851    80.1641   1  18   0.0036   0.0033   0.0069  -0.0007   0.0013  -0.0006  -0.05   91.8    1.61108    2.40439   -0.01671   0.07297  0.06955  0.06931 -0.01043  0.01240 -0.00538
2021/11/18 07:15:09.645   42.265189205   27.764674395    80.1381   1  18   0.0036   0.0033   0.0069  -0.0007   0.0013  -0.0006   0.02   91.6    1.64112    2.41046   -0.08319   0.07297  0.06954  0.06931 -0.01044  0.01240 -0.00539
2021/11/18 07:15:11.250   42.265213789   27.764721746    79.9730   1  18   0.0036   0.0033   0.0069  -0.0007   0.0010  -0.0005  -0.05   91.1    1.73381    2.40788   -0.14026   0.07297  0.06958  0.06937 -0.01047  0.01262 -0.00541
2021/11/18 07:15:11.845   42.265223125   27.764739220    79.8902   1  18   0.0036   0.0033   0.0069  -0.0007   0.0012  -0.0005  -0.05   90.9    1.75182    2.42791   -0.12221   0.07297  0.06955  0.06932 -0.01046  0.01241 -0.00540
2021/11/18 07:15:13.250   42.265245437   27.764780264    79.7340   1  18   0.0036   0.0033   0.0069  -0.0007   0.0010  -0.0006  -0.05   90.4    1.77135    2.39672   -0.07567   0.07297  0.07037  0.06981 -0.01047  0.00959 -0.00540
2021/11/18 07:15:13.645   42.265251688   27.764791755    79.6995   1  18   0.0036   0.0033   0.0069  -0.0007   0.0010  -0.0006   0.02   90.3    1.75696    2.38362   -0.08670   0.07296  0.07037  0.06981 -0.01048  0.00959 -0.00541
2021/11/18 07:15:15.330   42.265276229   27.764836437    79.6477   1  17   0.0036   0.0034   0.0069  -0.0002   0.0010  -0.0005  -0.05   14.9    0.91215    1.14177   -0.04336   0.07370  0.07060  0.06969 -0.00358  0.01008 -0.00514
2021/11/18 07:15:15.725   42.265278073   27.764839038    79.6437   1  18   0.0036   0.0034   0.0069  -0.0002   0.0010  -0.0005   0.02   15.0    0.14728   -0.03659    0.01130   0.07371  0.07102  0.06980 -0.00306  0.00969 -0.00520
2021/11/18 07:15:21.530   42.265351382   27.764741331    78.9942   1  18   0.0036   0.0033   0.0069  -0.0006   0.0012  -0.0006  -0.00    3.6    0.28427   -0.16520   -0.18414   0.07300  0.06957  0.06931 -0.01052  0.01246 -0.00544
2021/11/18 07:15:22.125   42.265350757   27.764741766    78.9365   1  17   0.0036   0.0034   0.0069  -0.0002   0.0010  -0.0006   0.02    4.0   -0.21939    0.06697   -0.04304   0.07334  0.07027  0.06967 -0.00785  0.01024 -0.00531
2021/11/18 07:15:25.130   42.265320196   27.764682913    79.2597   1  17   0.0036   0.0033   0.0069  -0.0003   0.0013  -0.0005   0.02    5.9   -1.76468   -2.36798   -0.02451   0.07371  0.07016  0.06933 -0.00390  0.01262 -0.00509
2021/11/18 07:15:25.730   42.265310561   27.764665660    79.2205   1  18   0.0036   0.0033   0.0069  -0.0006   0.0013  -0.0006   0.02    6.2   -1.79485   -2.39047   -0.12747   0.07296  0.06954  0.06932 -0.01061  0.01247 -0.00551
2021/11/18 07:15:27.130   42.265287910   27.764625236    79.0917   1  17   0.0036   0.0033   0.0069  -0.0007   0.0012  -0.0005   0.02   18.9   -1.82655   -2.39498   -0.06865   0.07298  0.06982  0.06943 -0.01112  0.01165 -0.00498
2021/11/18 07:15:27.730   42.265278097   27.764608035    79.0504   1  16   0.0036   0.0033   0.0069  -0.0004   0.0012  -0.0000   0.02   98.1   -1.81525   -2.35709   -0.03225   0.07391  0.07025  0.06951 -0.00591  0.01215 -0.00241
2021/11/18 07:15:29.130   42.265255417   27.764567710    78.9631   1  16   0.0036   0.0033   0.0069  -0.0004   0.0012  -0.0002   0.02   99.1   -1.78398   -2.38817   -0.06465   0.07390  0.07024  0.06947 -0.00587  0.01216 -0.00259
2021/11/18 07:15:29.525   42.265249166   27.764556378    78.9441   1  17   0.0037   0.0033   0.0069  -0.0005   0.0012   0.0004  -0.00   99.3   -1.76361   -2.37011   -0.01881   0.07404  0.07031  0.06964 -0.00671  0.01171  0.00340
2021/11/18 07:15:31.250   42.265221926   27.764506532    79.0142   1  16   0.0036   0.0033   0.0069  -0.0004   0.0013  -0.0002  -0.05  100.6   -1.77181   -2.44646    0.10961   0.07350  0.06994  0.06947 -0.00825  0.01224 -0.00301
2021/11/18 07:15:31.645   42.265215728   27.764494950    79.0335   1  17   0.0036   0.0033   0.0069  -0.0004   0.0012   0.0002   0.02  100.8   -1.72543   -2.40820    0.01937   0.07371  0.07016  0.06945 -0.00420  0.01269 -0.00512
2021/11/18 07:15:33.250   42.265190307   27.764448050    79.0916   1  17   0.0036   0.0033   0.0069  -0.0003   0.0013  -0.0005  -0.05    4.1   -1.77146   -2.47642   -0.01560   0.07338  0.06989  0.06933 -0.00777  0.01266 -0.00517
2021/11/18 07:15:33.645   42.265183965   27.764436476    79.0884   1  17   0.0036   0.0033   0.0069  -0.0004   0.0013  -0.0003   0.02    4.6   -1.78435   -2.39008   -0.03640   0.07389  0.07024  0.06947 -0.00597  0.01217 -0.00268
2021/11/18 07:15:35.250   42.265158184   27.764389354    79.0756   1  18   0.0036   0.0033   0.0069  -0.0003   0.0013  -0.0005  -0.05    3.7   -1.78774   -2.41113    0.00218   0.07371  0.07017  0.06934 -0.00420  0.01267 -0.00518
2021/11/18 07:15:35.845   42.265148792   27.764371899    79.0418   1  18   0.0036   0.0033   0.0069  -0.0006   0.0013  -0.0006  -0.05    4.5   -1.72578   -2.40765   -0.09581   0.07296  0.06955  0.06933 -0.01072  0.01252 -0.00559
2021/11/18 07:15:37.250   42.265126285   27.764331011    78.9527   1  16   0.0036   0.0033   0.0069  -0.0004   0.0013  -0.0002  -0.05  105.8   -1.79165   -2.37118   -0.07983   0.07381  0.07021  0.06947 -0.00528  0.01226 -0.00316
2021/11/18 07:15:37.645   42.265119925   27.764319665    78.9229   1  17   0.0036   0.0033   0.0069  -0.0005   0.0012  -0.0003   0.02  106.2   -1.79078   -2.37346   -0.07150   0.07301  0.06984  0.06950 -0.01111  0.01168 -0.00504
2021/11/18 07:15:39.250   42.265094577   27.764273254    78.7853   1  17   0.0036   0.0033   0.0069  -0.0007   0.0012  -0.0005  -0.05  107.5   -1.70425   -2.41266   -0.02183   0.07298  0.06983  0.06949 -0.01126  0.01171 -0.00507
2021/11/18 07:15:39.845   42.265085380   27.764255777    78.7733   1  16   0.0036   0.0033   0.0069  -0.0004   0.0012   0.0001  -0.05  108.0   -1.71693   -2.43861    0.00576   0.07370  0.07016  0.06946 -0.00457  0.01275 -0.00511
2021/11/18 07:15:41.250   42.265063667   27.764214392    78.8046   1  16   0.0036   0.0033   0.0069  -0.0004   0.0013  -0.0003  -0.05  109.3   -1.70043   -2.41445    0.02172   0.07390  0.07025  0.06953 -0.00618  0.01221 -0.00270
2021/11/18 07:15:41.845   42.265054499   27.764196861    78.8154   1  16   0.0036   0.0033   0.0069  -0.0004   0.0012  -0.0001  -0.05  109.9   -1.72508   -2.40756    0.05479   0.07375  0.07017  0.06953 -0.00734  0.01226 -0.00238
2021/11/18 07:15:43.250   42.265032407   27.764155852    78.8127   1  17   0.0036   0.0033   0.0069  -0.0004   0.0013  -0.0002  -0.05  111.4   -1.77085   -2.39359    0.02922   0.07359  0.07011  0.06948 -0.00825  0.01217 -0.00314
2021/11/18 07:15:43.845   42.265022913   27.764138529    78.8030   1  19   0.0035   0.0033   0.0068  -0.0004   0.0010   0.0006  -0.05    3.3   -1.76005   -2.39361   -0.00921   0.07227  0.06899  0.06807 -0.00515  0.00788  0.00886
2021/11/18 07:15:45.250   42.265000880   27.764098060    78.8452   1  18   0.0035   0.0033   0.0067  -0.0003   0.0008   0.0009  -0.05    3.9   -1.72493   -2.35260    0.02153   0.07228  0.06926  0.06810 -0.00577  0.00676  0.00868
2021/11/18 07:15:45.845   42.264991709   27.764080865    78.8502   1  18   0.0035   0.0033   0.0067  -0.0003   0.0007   0.0009  -0.05    4.2   -1.71832   -2.36597    0.01742   0.07225  0.06925  0.06810 -0.00596  0.00682  0.00875
2021/11/18 07:15:47.250   42.264971594   27.764042899    78.8822   1  18   0.0035   0.0033   0.0069  -0.0003   0.0003   0.0008  -0.05    5.5   -0.94296   -1.30004    0.00518   0.07231  0.06931  0.06903 -0.00478  0.00260  0.00702
2021/11/18 07:15:47.845   42.264969831   27.764039887    78.8907   1  18   0.0035   0.0033   0.0069  -0.0003   0.0003   0.0008  -0.05    3.3    0.12349    0.23347    0.01610   0.07231  0.06937  0.06941 -0.00490  0.00297  0.00702
2021/11/18 07:15:53.530   42.265048736   27.763944302    79.0656   1  19   0.0037   0.0033   0.0068  -0.0009   0.0011  -0.0005  -0.00    7.5    0.10790   -0.11944   -0.12318   0.07455  0.07031  0.06903 -0.01263  0.01089 -0.00490
2021/11/18 07:15:54.125   42.265047590   27.763944805    79.0050   1  17   0.0037   0.0034   0.0068  -0.0007   0.0012  -0.0005   0.02    7.8   -0.27378    0.07047   -0.08748   0.07438  0.07007  0.06891 -0.01223  0.01170 -0.00555
2021/11/18 07:15:57.130   42.265079474   27.764002176    79.3011   1  19   0.0035   0.0033   0.0068  -0.0004  -0.0001   0.0008   0.02    9.9    1.72203    2.36524    0.11586   0.07223  0.06935  0.06830 -0.00530  0.00453  0.00833
2021/11/18 07:15:57.730   42.265088892   27.764019508    79.3576   1  19   0.0035   0.0032   0.0067  -0.0004   0.0008   0.0008   0.02   10.1    1.75477    2.41891    0.08916   0.07222  0.06896  0.06794 -0.00529  0.00825  0.00837
2021/11/18 07:15:59.130   42.265111214   27.764060063    79.4743   1  19   0.0035   0.0032   0.0066  -0.0004   0.0008   0.0009   0.02    3.0    1.74404    2.37167    0.07153   0.07222  0.06895  0.06794 -0.00532  0.00825  0.00837
2021/11/18 07:15:59.730   42.265120583   27.764077481    79.5220   1  19   0.0035   0.0032   0.0066  -0.0003   0.0008   0.0009   0.02    3.7    1.71661    2.40906    0.08613   0.07222  0.06895  0.06794 -0.00533  0.00826  0.00836
2021/11/18 07:16:01.250   42.265144165   27.764122018    79.5897   1  19   0.0035   0.0033   0.0066   0.0003   0.0008   0.0009  -0.05   11.1    1.70768    2.46351   -0.00402   0.07225  0.06898  0.06795 -0.00508  0.00826  0.00836
2021/11/18 07:16:01.845   42.265153498   27.764139792    79.5517   1  19   0.0035   0.0032   0.0066  -0.0002   0.0008   0.0009  -0.05   11.1    1.77187    2.47342   -0.12569   0.07223  0.06896  0.06795 -0.00536  0.00827  0.00836
2021/11/18 07:16:03.250   42.265175672   27.764181718    79.4657   1  19   0.0035   0.0032   0.0066  -0.0003   0.0008   0.0009  -0.05   11.3    1.75098    2.43853   -0.07546   0.07223  0.06896  0.06795 -0.00539  0.00828  0.00835
2021/11/18 07:16:03.645   42.265181930   27.764193483    79.4475   1  19   0.0035   0.0032   0.0066  -0.0003   0.0008   0.0009   0.02    3.5    1.74962    2.44732   -0.01215   0.07222  0.06895  0.06794 -0.00540  0.00827  0.00835
2021/11/18 07:16:05.130   42.265205614   27.764237457    79.3806   1  19   0.0035   0.0032   0.0066  -0.0003   0.0008   0.0009   0.02   11.5    1.78728    2.43756   -0.01059   0.07222  0.06895  0.06795 -0.00543  0.00828  0.00834
2021/11/18 07:16:05.725   42.265215080   27.764254951    79.3769   1  19   0.0035   0.0032   0.0066  -0.0003   0.0008   0.0009   0.02    3.5    1.73319    2.43737   -0.00218   0.07222  0.06895  0.06795 -0.00544  0.00828  0.00834
2021/11/18 07:16:07.130   42.265237458   27.764295807    79.3963   1  19   0.0035   0.0032   0.0066  -0.0003   0.0008   0.0009   0.02   11.5    1.78917    2.37136    0.02845   0.07222  0.06895  0.06795 -0.00546  0.00829  0.00833
2021/11/18 07:16:07.725   42.265246923   27.764313063    79.4261   1  19   0.0035   0.0032   0.0066  -0.0003   0.0008   0.0009   0.02    3.3    1.77543    2.40029    0.07992   0.07222  0.06895  0.06795 -0.00547  0.00829  0.00833
2021/11/18 07:16:09.130   42.265269336   27.764354452    79.5082   1  18   0.0036   0.0033   0.0069  -0.0006   0.0013  -0.0006   0.02    3.7    1.76065    2.44284    0.06143   0.07294  0.06954  0.06933 -0.01106  0.01269 -0.00591
2021/11/18 07:16:09.525   42.265275589   27.764366042    79.5342   1  18   0.0036   0.0033   0.0069  -0.0007   0.0013  -0.0006  -0.00    4.6    1.76589    2.40324    0.08090   0.07297  0.06956  0.06935 -0.01108  0.01268 -0.00584
2021/11/18 07:16:11.130   42.265300629   27.764412448    79.6573   1  18   0.0036   0.0033   0.0068  -0.0007   0.0013  -0.0005   0.02   20.3    1.76894    2.37788    0.09913   0.07257  0.06924  0.06890 -0.00869  0.01186 -0.00337
2021/11/18 07:16:11.725   42.265309829   27.764429721    79.6875   1  18   0.0036   0.0033   0.0069  -0.0007   0.0013  -0.0006   0.02   20.5    1.72597    2.37711    0.02426   0.07294  0.06954  0.06944 -0.01110  0.01256 -0.00587
2021/11/18 07:16:13.130   42.265331760   27.764470364    79.6453   1  18   0.0036   0.0033   0.0069  -0.0007   0.0013  -0.0006   0.02    3.6    1.78345    2.39765   -0.08773   0.07294  0.06954  0.06936 -0.01112  0.01270 -0.00588
2021/11/18 07:16:13.730   42.265341236   27.764487874    79.6034   1  18   0.0036   0.0033   0.0069  -0.0007   0.0013  -0.0006   0.02    4.8    1.77966    2.40489   -0.08617   0.07294  0.06954  0.06937 -0.01112  0.01270 -0.00588
2021/11/18 07:16:15.175   42.265364405   27.764530056    79.4813   1  18   0.0036   0.0033   0.0069  -0.0007   0.0013  -0.0006   0.02   21.5    1.78750    2.38240   -0.03758   0.07294  0.06954  0.06937 -0.01114  0.01270 -0.00589
2021/11/18 07:16:15.570   42.265370758   27.764541458    79.4674   1  18   0.0036   0.0033   0.0069  -0.0007   0.0013  -0.0006  -0.00    4.0    1.77969    2.36982   -0.02955   0.07297  0.06956  0.06936 -0.01114  0.01271 -0.00589
2021/11/18 07:16:17.131   42.265395560   27.764586543    79.4117   1  17   0.0036   0.0034   0.0070  -0.0007   0.0009  -0.0006   0.02    5.8    1.72750    2.38790   -0.06982   0.07295  0.07053  0.06998 -0.01136  0.00895 -0.00552
2021/11/18 07:16:17.525   42.265401781   27.764597861    79.3794   1  18   0.0036   0.0033   0.0069  -0.0008   0.0012  -0.0003  -0.00    6.2    1.73175    2.33524   -0.10347   0.07307  0.06992  0.06969 -0.01200  0.01159 -0.00371
2021/11/18 07:16:19.130   42.265425828   27.764641272    79.3593   1  18   0.0036   0.0033   0.0069  -0.0007   0.0013  -0.0006   0.02    3.7    1.06067    1.34919   -0.00743   0.07294  0.06999  0.06939 -0.01116  0.01214 -0.00593
2021/11/18 07:16:19.725   42.265428427   27.764645014    79.3471   1  18   0.0036   0.0033   0.0069  -0.0007   0.0013  -0.0006   0.02    4.5    0.01890   -0.12658   -0.04230   0.07294  0.06954  0.06937 -0.01119  0.01273 -0.00593
