% program   : RTKPOST ver.demo5 b34d
% inp file  : Y:\orto\Cr_Bregoukrepvane_Kontrol\Измервания_3\rover\base-2021-11-20-21-49-28.obs
% inp file  : Y:\orto\Cr_Bregoukrepvane_Kontrol\Измервания_3\CarV\00100940.22o
% inp file  : Y:\orto\Cr_Bregoukrepvane_Kontrol\Измервания_3\rover\base-2021-11-20-21-49-28.nav
% obs start : 2022/04/04 09:23:47.7 GPST (week2204 120227.7s)
% obs end   : 2022/04/04 09:40:36.9 GPST (week2204 121236.9s)
% pos mode  : Kinematic
% freqs     : L1+L2/E5b
% solution  : Forward
% elev mask : 15.0 deg
% dynamics  : on
% tidecorr  : off
% ionos opt : Broadcast
% tropo opt : Saastamoinen
% ephemeris : Broadcast
% navi sys  : GPS GLONASS Galileo
% amb res   : Fix and Hold
% amb glo   : Fix and Hold
% val thres : 3.0
% antenna1  :                       ( 0.0000  0.0000  0.2110)
% antenna2  :                       ( 0.0000  0.0000  0.0000)
% ref pos   : 42.173730277   27.849862793    -0.0000
%
% (lat/lon/height=WGS84/ellipsoidal,Q=1:fix,2:float,3:sbas,4:dgps,5:single,6:ppp,ns=# of satellites)
%  GPST                  latitude(deg) longitude(deg)  height(m)   Q  ns   sdn(m)   sde(m)   sdu(m)  sdne(m)  sdeu(m)  sdun(m) age(s)  ratio
2022/04/04 09:25:10.301   42.173606810   27.849221154    90.8986   2  11   0.0513   0.0772   0.1012   0.0454   0.0281  -0.0288  -0.75    1.8
2022/04/04 09:25:13.741   42.173740490   27.849229313    90.8261   1  11   0.0056   0.0047   0.0095   0.0015   0.0032   0.0026  -0.38    6.4
2022/04/04 09:25:14.341   42.173772317   27.849232056    90.7915   1  11   0.0056   0.0047   0.0095   0.0015   0.0032   0.0026  -0.75    6.1
2022/04/04 09:25:16.141   42.173867629   27.849240195    90.7052   1  11   0.0056   0.0047   0.0095   0.0015   0.0032   0.0025  -0.88    5.6
2022/04/04 09:25:18.581   42.173998162   27.849250875    90.8808   1  11   0.0055   0.0046   0.0094   0.0015   0.0031   0.0025  -0.50    5.2
2022/04/04 09:25:18.981   42.174019628   27.849252739    90.9162   1  11   0.0055   0.0047   0.0095   0.0015   0.0032   0.0025  -0.13    5.2
2022/04/04 09:25:20.981   42.174124819   27.849261636    91.1484   1  11   0.0055   0.0047   0.0095   0.0014   0.0031   0.0025  -0.13    5.1
2022/04/04 09:25:21.381   42.174145798   27.849263273    91.1904   1  11   0.0055   0.0046   0.0095   0.0015   0.0031   0.0025  -0.63    5.2
2022/04/04 09:25:23.421   42.174253291   27.849271444    91.3202   1  11   0.0055   0.0046   0.0095   0.0014   0.0031   0.0025  -0.63    4.7
2022/04/04 09:25:25.821   42.174379303   27.849281250    91.2243   1  11   0.0055   0.0047   0.0095   0.0014   0.0031   0.0025  -0.25    4.1
2022/04/04 09:25:26.221   42.174400459   27.849283005    91.2160   1  11   0.0055   0.0047   0.0095   0.0014   0.0031   0.0025  -0.88    4.1
2022/04/04 09:25:28.221   42.174506932   27.849292215    91.2245   1  11   0.0055   0.0047   0.0095   0.0014   0.0031   0.0025  -0.88    3.7
2022/04/04 09:25:30.661   42.174637130   27.849302802    91.3182   1  11   0.0055   0.0046   0.0094   0.0014   0.0031   0.0025  -0.38    3.4
2022/04/04 09:25:31.061   42.174658542   27.849304818    91.3565   1  11   0.0055   0.0046   0.0094   0.0014   0.0031   0.0025  -0.00    3.4
2022/04/04 09:25:33.061   42.174765668   27.849312931    91.5556   1  11   0.0054   0.0046   0.0094   0.0014   0.0031   0.0025  -0.00    7.2
2022/04/04 09:25:33.461   42.174787174   27.849314539    91.5571   1  11   0.0055   0.0046   0.0094   0.0014   0.0031   0.0025  -0.63    7.3
2022/04/04 09:25:35.501   42.174896765   27.849323656    91.4477   1  11   0.0055   0.0046   0.0094   0.0014   0.0031   0.0025  -0.50    8.1
2022/04/04 09:25:37.901   42.175025167   27.849334261    90.9943   1  11   0.0055   0.0047   0.0095   0.0014   0.0031   0.0025  -0.13    8.7
2022/04/04 09:25:38.301   42.175046504   27.849336271    90.9051   1  11   0.0055   0.0047   0.0095   0.0014   0.0031   0.0025  -0.75    8.8
2022/04/04 09:25:40.341   42.175155781   27.849346042    90.6656   1  11   0.0055   0.0047   0.0095   0.0014   0.0031   0.0025  -0.75    9.3
2022/04/04 09:25:40.741   42.175177269   27.849348009    90.6450   1  11   0.0055   0.0046   0.0094   0.0014   0.0031   0.0025  -0.38    9.4
2022/04/04 09:25:42.741   42.175284467   27.849357734    90.6411   1  11   0.0055   0.0046   0.0094   0.0014   0.0031   0.0025  -0.38    9.9
2022/04/04 09:25:43.141   42.175305924   27.849359818    90.6700   1  11   0.0055   0.0047   0.0095   0.0014   0.0031   0.0025  -0.88   10.0
2022/04/04 09:25:45.141   42.175413566   27.849369940    90.8665   1  11   0.0055   0.0047   0.0095   0.0014   0.0031   0.0025  -0.88   10.5
2022/04/04 09:25:47.581   42.175544940   27.849382465    91.1544   1  11   0.0055   0.0046   0.0094   0.0014   0.0031   0.0025  -0.50   11.0
2022/04/04 09:25:47.981   42.175566457   27.849384390    91.1842   1  11   0.0055   0.0047   0.0095   0.0014   0.0031   0.0025  -0.13   11.1
2022/04/04 09:25:50.061   42.175673929   27.849394474    91.2699   1  11   0.0054   0.0046   0.0094   0.0014   0.0031   0.0025  -0.00   11.5
2022/04/04 09:25:50.661   42.175690907   27.849396138    91.2608   1  11   0.0055   0.0046   0.0094   0.0014   0.0031   0.0025  -0.38   11.7
2022/04/04 09:25:53.181   42.175695640   27.849394936    90.9041   1  11   0.0055   0.0047   0.0095   0.0014   0.0031   0.0025  -0.88   12.1
2022/04/04 09:25:53.781   42.175699176   27.849396993    90.7644   1  11   0.0055   0.0047   0.0095   0.0014   0.0031   0.0025  -0.25   12.2
2022/04/04 09:25:56.661   42.175818563   27.849474247    90.5008   1  11   0.0055   0.0046   0.0094   0.0014   0.0031   0.0025  -0.38   12.5
2022/04/04 09:25:57.261   42.175848502   27.849494308    90.5773   1  11   0.0055   0.0047   0.0095   0.0014   0.0031   0.0025  -0.75   12.6
2022/04/04 09:25:59.101   42.175936984   27.849552493    90.7793   1  11   0.0054   0.0046   0.0094   0.0014   0.0031   0.0025  -0.00   12.9
2022/04/04 09:25:59.501   42.175956098   27.849565127    90.8146   1  11   0.0055   0.0046   0.0094   0.0014   0.0031   0.0025  -0.50   12.9
2022/04/04 09:26:01.501   42.176052171   27.849628338    90.9585   1  11   0.0055   0.0046   0.0094   0.0014   0.0031   0.0025  -0.50   13.2
2022/04/04 09:26:03.941   42.176169951   27.849705495    91.2287   1  11   0.0055   0.0047   0.0095   0.0014   0.0031   0.0025  -0.13   13.6
2022/04/04 09:26:04.541   42.176198804   27.849724184    91.2788   1  11   0.0055   0.0046   0.0094   0.0014   0.0031   0.0025  -0.50   13.6
2022/04/04 09:26:06.341   42.176285735   27.849780406    91.3234   1  11   0.0055   0.0047   0.0095   0.0014   0.0031   0.0025  -0.75   13.8
2022/04/04 09:26:06.941   42.176314751   27.849799148    91.3320   1  11   0.0055   0.0047   0.0095   0.0014   0.0031   0.0025  -0.13   13.8
2022/04/04 09:26:08.741   42.176401771   27.849855886    91.2885   1  11   0.0055   0.0046   0.0095   0.0014   0.0031   0.0025  -0.38   14.0
2022/04/04 09:26:11.181   42.176519965   27.849933251    91.2408   1  11   0.0055   0.0047   0.0095   0.0014   0.0031   0.0025  -0.88   14.1
2022/04/04 09:26:11.581   42.176539308   27.849946113    91.2478   1  11   0.0055   0.0046   0.0094   0.0014   0.0031   0.0025  -0.50   14.2
2022/04/04 09:26:13.581   42.176635720   27.850009221    91.2956   1  11   0.0055   0.0046   0.0094   0.0014   0.0031   0.0025  -0.50   14.3
2022/04/04 09:26:13.981   42.176655010   27.850021895    91.2897   1  11   0.0055   0.0047   0.0095   0.0014   0.0031   0.0025  -0.13   14.3
2022/04/04 09:26:16.021   42.176753912   27.850086911    91.2964   1  11   0.0054   0.0046   0.0094   0.0014   0.0031   0.0025  -0.00   14.4
2022/04/04 09:26:18.901   42.176869944   27.850163844    91.4137   1  11   0.0055   0.0047   0.0095   0.0014   0.0031   0.0025  -0.13   14.7
2022/04/04 09:26:19.501   42.176872903   27.850165862    91.4166   1  11   0.0055   0.0046   0.0095   0.0014   0.0031   0.0025  -0.50   14.7
2022/04/04 09:26:21.181   42.176870153   27.850164145    91.1774   1  11   0.0055   0.0047   0.0095   0.0014   0.0031   0.0025  -0.88   14.8
2022/04/04 09:26:21.781   42.176872558   27.850168128    91.0651   1  11   0.0055   0.0047   0.0095   0.0014   0.0031   0.0025  -0.25   14.8
2022/04/04 09:26:24.661   42.176961662   27.850296569    90.8699   1  11   0.0055   0.0046   0.0095   0.0014   0.0031   0.0025  -0.38   14.8
2022/04/04 09:26:27.061   42.177049943   27.850426391    91.1228   1  11   0.0054   0.0046   0.0094   0.0014   0.0031   0.0025  -0.00   14.9
2022/04/04 09:26:29.501   42.177137811   27.850555222    91.4175   1  11   0.0054   0.0046   0.0095   0.0014   0.0031   0.0025  -0.50   15.0
2022/04/04 09:26:29.901   42.177152206   27.850576244    91.4723   1  11   0.0055   0.0047   0.0095   0.0014   0.0031   0.0025  -0.13   15.1
2022/04/04 09:26:31.901   42.177224551   27.850681673    91.5606   1  11   0.0055   0.0047   0.0095   0.0014   0.0031   0.0025  -0.13   15.3
2022/04/04 09:26:32.501   42.177246185   27.850713250    91.5445   1  11   0.0054   0.0046   0.0095   0.0014   0.0031   0.0025  -0.50   15.3
2022/04/04 09:26:34.341   42.177312499   27.850811061    91.4631   1  11   0.0055   0.0047   0.0095   0.0014   0.0031   0.0025  -0.75   15.4
2022/04/04 09:26:34.741   42.177326816   27.850832314    91.4520   1  11   0.0055   0.0046   0.0095   0.0014   0.0031   0.0025  -0.38   15.4
2022/04/04 09:26:36.742   42.177398961   27.850938767    91.5161   1  11   0.0055   0.0046   0.0095   0.0014   0.0031   0.0025  -0.38   15.6
2022/04/04 09:26:39.182   42.177486927   27.851068025    91.5855   1  11   0.0058   0.0049   0.0100   0.0014   0.0032   0.0026  -0.88   15.6
2022/04/04 09:26:39.581   42.177501362   27.851089253    91.5836   1  11   0.0059   0.0050   0.0102   0.0013   0.0032   0.0027  -0.50   15.6
2022/04/04 09:26:41.581   42.177573369   27.851194372    91.5645   1  11   0.0054   0.0046   0.0095   0.0014   0.0031   0.0025  -0.50   15.7
2022/04/04 09:26:41.981   42.177585207   27.851212600    91.6077   1  11   0.0055   0.0047   0.0095   0.0014   0.0031   0.0026  -0.13   15.7
2022/04/04 09:26:44.942   42.177596034   27.851234017    91.3535   1  11   0.0055   0.0047   0.0095   0.0014   0.0031   0.0026  -0.13   15.8
2022/04/04 09:26:45.341   42.177596741   27.851235599    91.2137   1  11   0.0055   0.0047   0.0095   0.0014   0.0031   0.0026  -0.75   15.7
2022/04/04 09:26:48.462   42.177654580   27.851394284    90.5924   1  11   0.0055   0.0046   0.0095   0.0014   0.0031   0.0026  -0.63   15.7
2022/04/04 09:26:49.061   42.177668004   27.851435371    90.6123   1  11   0.0054   0.0046   0.0095   0.0014   0.0031   0.0026  -0.00   15.7
2022/04/04 09:26:50.862   42.177707705   27.851555498    90.8609   1  11   0.0055   0.0047   0.0095   0.0014   0.0031   0.0026  -0.25   15.8
2022/04/04 09:26:53.302   42.177761979   27.851715453    91.2880   1  11   0.0055   0.0047   0.0095   0.0014   0.0031   0.0026  -0.75   15.8
2022/04/04 09:26:53.701   42.177771028   27.851741649    91.3349   1  11   0.0055   0.0046   0.0095   0.0014   0.0031   0.0026  -0.38   15.8
2022/04/04 09:26:55.702   42.177816170   27.851872827    91.4840   1  11   0.0055   0.0046   0.0095   0.0014   0.0031   0.0026  -0.38   15.9
2022/04/04 09:26:56.301   42.177829400   27.851912324    91.5445   1  11   0.0055   0.0047   0.0095   0.0014   0.0031   0.0026  -0.75   15.9
2022/04/04 09:26:58.142   42.177870068   27.852033721    91.6914   1  11   0.0055   0.0047   0.0095   0.0014   0.0031   0.0026  -0.88   15.9
2022/04/04 09:26:58.541   42.177878957   27.852060075    91.7150   1  11   0.0054   0.0046   0.0095   0.0014   0.0031   0.0026  -0.50   15.9
2022/04/04 09:27:00.542   42.177923690   27.852191572    91.7315   1  11   0.0054   0.0046   0.0095   0.0014   0.0031   0.0026  -0.50   15.9
2022/04/04 09:27:00.942   42.177932561   27.852217781    91.7470   1  11   0.0055   0.0047   0.0095   0.0014   0.0031   0.0026  -0.13   15.9
2022/04/04 09:27:02.982   42.177978063   27.852351428    91.7359   1  11   0.0055   0.0047   0.0095   0.0014   0.0031   0.0026  -0.13   16.0
2022/04/04 09:27:03.382   42.177986943   27.852377570    91.7342   1  11   0.0055   0.0047   0.0095   0.0014   0.0031   0.0026  -0.63   16.0
2022/04/04 09:27:05.422   42.178032161   27.852509960    91.7096   1  11   0.0055   0.0047   0.0095   0.0014   0.0031   0.0026  -0.63   16.0
2022/04/04 09:27:08.142   42.178044902   27.852555753    91.6529   1  11   0.0055   0.0047   0.0095   0.0014   0.0031   0.0026  -0.88   16.0
2022/04/04 09:27:08.542   42.178044521   27.852555849    91.6012   1  11   0.0054   0.0046   0.0095   0.0014   0.0031   0.0026  -0.50   16.0
2022/04/04 09:27:17.942   42.177864613   27.852674838    90.6223   1  11   0.0055   0.0047   0.0096   0.0014   0.0031   0.0026  -0.13   16.4
2022/04/04 09:27:18.342   42.177863284   27.852673408    90.5156   1  11   0.0055   0.0047   0.0095   0.0014   0.0031   0.0026  -0.75   16.4
2022/04/04 09:27:21.382   42.177802043   27.852512423    90.2831   1  11   0.0055   0.0047   0.0095   0.0014   0.0031   0.0026  -0.63   16.5
2022/04/04 09:27:21.782   42.177792406   27.852486283    90.2616   1  11   0.0055   0.0047   0.0095   0.0014   0.0031   0.0026  -0.25   16.5
2022/04/04 09:27:23.782   42.177743900   27.852354573    90.2485   1  11   0.0056   0.0047   0.0098   0.0014   0.0032   0.0021  -0.25   17.6
2022/04/04 09:27:26.222   42.177684697   27.852192019    90.2734   1  11   0.0055   0.0047   0.0096   0.0014   0.0031   0.0026  -0.88   17.5
2022/04/04 09:27:28.622   42.177625649   27.852032938    90.2611   1  11   0.0054   0.0046   0.0095   0.0014   0.0031   0.0026  -0.50   13.1
2022/04/04 09:27:29.222   42.177610885   27.851993074    90.2592   1  11   0.0055   0.0047   0.0097   0.0015   0.0032   0.0026  -0.88   13.1
2022/04/04 09:27:31.022   42.177567154   27.851873192    90.2416   1  11   0.0054   0.0046   0.0095   0.0014   0.0031   0.0026  -0.00   13.1
2022/04/04 09:27:31.622   42.177552807   27.851833227    90.2237   1  11   0.0054   0.0046   0.0095   0.0014   0.0031   0.0026  -0.50   13.1
2022/04/04 09:27:33.462   42.177509289   27.851711440    90.1880   1  11   0.0055   0.0047   0.0095   0.0014   0.0031   0.0026  -0.63    3.3
2022/04/04 09:27:33.862   42.177499722   27.851684820    90.1878   1  11   0.0055   0.0047   0.0096   0.0014   0.0031   0.0026  -0.25    3.4
2022/04/04 09:27:35.862   42.177452350   27.851551388    90.1949   1  11   0.0055   0.0047   0.0096   0.0014   0.0031   0.0026  -0.25    3.8
2022/04/04 09:27:38.582   42.177395534   27.851391051    90.1163   1  11   0.0054   0.0046   0.0095   0.0014   0.0031   0.0026  -0.50    4.3
2022/04/04 09:27:39.182   42.177391749   27.851380539    90.1212   1  11   0.0055   0.0047   0.0096   0.0014   0.0031   0.0026  -0.88    4.5
2022/04/04 09:27:44.622   42.177297243   27.851242602    90.2958   1  11   0.0055   0.0047   0.0096   0.0014   0.0031   0.0025  -0.38   17.4
2022/04/04 09:27:45.022   42.177282265   27.851221134    90.3233   1  11   0.0055   0.0046   0.0096   0.0014   0.0031   0.0025  -0.00   17.4
2022/04/04 09:27:47.022   42.177207758   27.851115593    90.3336   1  11   0.0054   0.0046   0.0095   0.0014   0.0031   0.0026  -0.00   17.3
2022/04/04 09:27:47.422   42.177192860   27.851094497    90.3468   1  11   0.0055   0.0047   0.0096   0.0014   0.0031   0.0026  -0.63   17.3
2022/04/04 09:27:49.462   42.177116291   27.850985572    90.4329   1  11   0.0055   0.0047   0.0096   0.0014   0.0031   0.0026  -0.63   17.3
2022/04/04 09:27:49.862   42.177101308   27.850964251    90.4494   1  11   0.0055   0.0047   0.0096   0.0014   0.0031   0.0026  -0.25   17.3
2022/04/04 09:27:51.862   42.177026414   27.850857216    90.5370   1  11   0.0055   0.0047   0.0096   0.0014   0.0031   0.0026  -0.25   17.5
2022/04/04 09:27:52.262   42.177011408   27.850835889    90.5453   1  11   0.0055   0.0047   0.0096   0.0014   0.0031   0.0026  -0.75   17.5
2022/04/04 09:27:54.262   42.176936285   27.850728153    90.6550   1  11   0.0055   0.0047   0.0096   0.0014   0.0031   0.0026  -0.75   17.7
2022/04/04 09:27:56.702   42.176845908   27.850597231    90.8101   1  11   0.0054   0.0047   0.0096   0.0014   0.0031   0.0026  -0.38   18.0
2022/04/04 09:27:57.102   42.176830939   27.850575835    90.8184   1  11   0.0054   0.0046   0.0095   0.0014   0.0031   0.0026  -0.00   18.1
2022/04/04 09:27:59.102   42.176756090   27.850468216    90.8444   1  11   0.0054   0.0046   0.0095   0.0014   0.0031   0.0026  -0.00   18.3
2022/04/04 09:28:03.822   42.176684173   27.850365567    90.5303   1  11   0.0055   0.0047   0.0096   0.0014   0.0031   0.0027  -0.25   18.9
2022/04/04 09:28:04.422   42.176680252   27.850362687    90.3930   1  10   0.0056   0.0047   0.0097   0.0014   0.0031   0.0022  -0.63    5.2
2022/04/04 09:28:07.302   42.176559392   27.850283150    90.2934   1  11   0.0055   0.0047   0.0097   0.0014   0.0032   0.0024  -0.75   19.3
2022/04/04 09:28:07.702   42.176539621   27.850270443    90.3451   1  11   0.0055   0.0047   0.0096   0.0014   0.0031   0.0025  -0.38   19.3
2022/04/04 09:28:09.702   42.176442376   27.850207293    90.7190   1  11   0.0055   0.0047   0.0096   0.0014   0.0031   0.0026  -0.38   19.6
2022/04/04 09:28:12.142   42.176323043   27.850130200    91.0860   1  11   0.0055   0.0047   0.0096   0.0014   0.0031   0.0026  -0.88   19.9
2022/04/04 09:28:12.542   42.176303413   27.850117820    91.1157   1  11   0.0054   0.0046   0.0096   0.0014   0.0031   0.0026  -0.50   19.9
2022/04/04 09:28:14.542   42.176205208   27.850055324    91.2317   1  11   0.0054   0.0046   0.0096   0.0014   0.0031   0.0026  -0.50   20.2
2022/04/04 09:28:14.942   42.176185760   27.850042848    91.2351   1  11   0.0055   0.0047   0.0096   0.0014   0.0031   0.0027  -0.13   20.2
2022/04/04 09:28:16.982   42.176086073   27.849977903    91.2152   1  10   0.0056   0.0047   0.0098   0.0014   0.0032   0.0022  -0.13   20.4
2022/04/04 09:28:17.582   42.176056834   27.849958987    91.1536   1  10   0.0056   0.0046   0.0097   0.0014   0.0031   0.0022  -0.50    3.4
2022/04/04 09:28:19.382   42.175969004   27.849902533    91.0364   1  10   0.0056   0.0047   0.0098   0.0014   0.0032   0.0022  -0.63    3.8
2022/04/04 09:28:19.982   42.175939534   27.849883664    91.0152   1  10   0.0056   0.0047   0.0098   0.0014   0.0032   0.0022  -0.13    3.9
2022/04/04 09:28:21.822   42.175849791   27.849824590    91.0314   1  10   0.0056   0.0047   0.0098   0.0014   0.0032   0.0022  -0.25    4.4
2022/04/04 09:28:24.222   42.175732368   27.849748368    90.9889   1  10   0.0056   0.0047   0.0098   0.0014   0.0032   0.0022  -0.88    4.9
2022/04/04 09:28:24.822   42.175702938   27.849729359    91.0367   1  10   0.0056   0.0047   0.0098   0.0014   0.0032   0.0022  -0.25    5.0
2022/04/04 09:28:26.622   42.175614504   27.849672352    91.1583   1  11   0.0055   0.0047   0.0097   0.0014   0.0031   0.0025  -0.38    5.5
2022/04/04 09:28:27.022   42.175595722   27.849660256    91.1876   1  11   0.0054   0.0046   0.0096   0.0014   0.0031   0.0026  -0.00    5.5
2022/04/04 09:28:30.462   42.175562122   27.849640732    90.8391   1  11   0.0054   0.0047   0.0096   0.0014   0.0031   0.0027  -0.63    6.3
2022/04/04 09:28:30.862   42.175560616   27.849640523    90.7212   1  11   0.0055   0.0047   0.0096   0.0014   0.0031   0.0027  -0.25    6.4
2022/04/04 09:28:33.942   42.175425607   27.849629662    90.3138   1  11   0.0055   0.0047   0.0096   0.0014   0.0031   0.0027  -0.13    7.0
2022/04/04 09:28:34.542   42.175392796   27.849627535    90.3476   1  11   0.0054   0.0047   0.0096   0.0014   0.0031   0.0027  -0.50    7.1
2022/04/04 09:28:36.342   42.175295361   27.849619699    90.4959   1  11   0.0055   0.0047   0.0096   0.0014   0.0031   0.0027  -0.75    7.5
2022/04/04 09:28:38.782   42.175164037   27.849607834    90.6406   1  11   0.0055   0.0047   0.0096   0.0014   0.0031   0.0027  -0.25    8.0
2022/04/04 09:28:41.182   42.175034868   27.849596171    90.8495   1  11   0.0055   0.0047   0.0096   0.0014   0.0031   0.0027  -0.88    8.5
2022/04/04 09:28:41.582   42.175013476   27.849594139    90.8559   1  11   0.0054   0.0047   0.0096   0.0014   0.0031   0.0027  -0.50    8.6
2022/04/04 09:28:43.622   42.174904141   27.849584986    90.8654   1  11   0.0054   0.0047   0.0096   0.0014   0.0031   0.0027  -0.38    9.0
2022/04/04 09:28:44.222   42.174872092   27.849582267    90.8612   1  11   0.0055   0.0047   0.0096   0.0014   0.0031   0.0027  -0.88    9.1
2022/04/04 09:28:46.022   42.174775760   27.849574334    90.8612   1  11   0.0054   0.0046   0.0096   0.0014   0.0031   0.0027  -0.00    9.5
2022/04/04 09:28:48.462   42.174644985   27.849561749    90.9308   1  11   0.0054   0.0047   0.0096   0.0014   0.0031   0.0027  -0.63    3.5
2022/04/04 09:28:50.863   42.174516420   27.849548395    91.1655   1  11   0.0054   0.0047   0.0096   0.0014   0.0031   0.0027  -0.25    3.9
2022/04/04 09:28:51.462   42.174484137   27.849545893    91.1768   1  11   0.0054   0.0047   0.0096   0.0014   0.0031   0.0027  -0.63    4.0
2022/04/04 09:28:53.303   42.174385391   27.849538212    91.2437   1  11   0.0054   0.0047   0.0096   0.0014   0.0031   0.0027  -0.75    4.2
2022/04/04 09:28:53.702   42.174363760   27.849536551    91.2667   1  11   0.0054   0.0047   0.0096   0.0014   0.0031   0.0027  -0.38    4.3
2022/04/04 09:28:55.703   42.174255704   27.849526220    91.3897   1  11   0.0054   0.0047   0.0096   0.0014   0.0031   0.0027  -0.38    4.6
2022/04/04 09:28:56.102   42.174233928   27.849523906    91.3912   1  11   0.0054   0.0046   0.0096   0.0014   0.0031   0.0027  -0.00    4.6
2022/04/04 09:28:58.103   42.174125861   27.849513973    91.4304   1  11   0.0054   0.0046   0.0096   0.0014   0.0031   0.0027  -0.00    4.9
2022/04/04 09:28:58.702   42.174093575   27.849511204    91.4015   1  11   0.0054   0.0047   0.0096   0.0014   0.0031   0.0027  -0.38    4.9
2022/04/04 09:29:00.542   42.173994709   27.849501873    91.1415   1  11   0.0054   0.0047   0.0096   0.0014   0.0031   0.0027  -0.50    5.2
2022/04/04 09:29:00.942   42.173973241   27.849499951    91.0542   1  11   0.0055   0.0047   0.0097   0.0014   0.0031   0.0027  -0.13    5.2
2022/04/04 09:29:02.943   42.173865398   27.849490294    90.8670   1  11   0.0055   0.0047   0.0097   0.0014   0.0031   0.0027  -0.13    5.5
2022/04/04 09:29:05.383   42.173733407   27.849478860    90.8207   1  11   0.0054   0.0047   0.0096   0.0014   0.0031   0.0027  -0.63    5.8
2022/04/04 09:29:07.783   42.173603522   27.849467691    90.7441   1  11   0.0054   0.0047   0.0096   0.0014   0.0031   0.0027  -0.25    6.2
2022/04/04 09:29:21.663   42.173481591   27.849726714    91.5197   1  11   0.0054   0.0047   0.0096   0.0014   0.0031   0.0027  -0.38    8.2
2022/04/04 09:29:22.063   42.173483646   27.849726777    91.4074   1  11   0.0054   0.0046   0.0096   0.0014   0.0031   0.0027  -0.00    8.3
2022/04/04 09:29:25.223   42.173621237   27.849742095    90.8045   1  11   0.0055   0.0047   0.0097   0.0014   0.0031   0.0028  -0.88    8.7
2022/04/04 09:29:25.823   42.173654159   27.849745644    90.8758   1  11   0.0054   0.0047   0.0097   0.0014   0.0031   0.0028  -0.25    8.8
2022/04/04 09:29:27.623   42.173752517   27.849754247    91.1940   1  11   0.0054   0.0047   0.0096   0.0014   0.0031   0.0028  -0.38    9.1
2022/04/04 09:29:28.222   42.173785252   27.849756839    91.2136   1  11   0.0055   0.0047   0.0097   0.0014   0.0031   0.0028  -0.88    9.2
2022/04/04 09:29:30.063   42.173886430   27.849766622    90.9996   1  11   0.0054   0.0046   0.0096   0.0014   0.0031   0.0027  -0.00    9.4
2022/04/04 09:29:30.463   42.173908455   27.849769183    90.9597   1  11   0.0054   0.0047   0.0096   0.0014   0.0031   0.0028  -0.63    9.5
2022/04/04 09:29:32.463   42.174018554   27.849780360    91.1144   1  11   0.0054   0.0047   0.0096   0.0014   0.0031   0.0028  -0.63    9.8
2022/04/04 09:29:32.863   42.174040648   27.849782206    91.2122   1  11   0.0054   0.0047   0.0097   0.0014   0.0031   0.0028  -0.25    9.9
2022/04/04 09:29:34.863   42.174150183   27.849792027    91.4561   1  11   0.0054   0.0047   0.0097   0.0014   0.0031   0.0028  -0.25   10.2
2022/04/04 09:29:35.463   42.174183112   27.849795132    91.4960   1  11   0.0054   0.0047   0.0097   0.0014   0.0031   0.0028  -0.63   10.3
2022/04/04 09:29:37.303   42.174284012   27.849803804    91.6156   1  11   0.0054   0.0047   0.0097   0.0014   0.0031   0.0028  -0.75   10.6
2022/04/04 09:29:37.703   42.174305875   27.849805897    91.5937   1  11   0.0054   0.0047   0.0096   0.0014   0.0031   0.0028  -0.38   10.6
2022/04/04 09:29:39.703   42.174415695   27.849816995    91.6663   1  11   0.0054   0.0047   0.0097   0.0014   0.0031   0.0028  -0.38   11.0
2022/04/04 09:29:40.303   42.174448555   27.849819862    91.7096   1  11   0.0054   0.0047   0.0097   0.0014   0.0031   0.0028  -0.75   11.1
2022/04/04 09:29:42.143   42.174549854   27.849829150    91.6790   1  11   0.0055   0.0047   0.0097   0.0014   0.0031   0.0028  -0.88   11.4
2022/04/04 09:29:42.743   42.174582978   27.849832186    91.6941   1  11   0.0054   0.0047   0.0097   0.0014   0.0031   0.0028  -0.38   11.4
2022/04/04 09:29:44.543   42.174681690   27.849841123    91.6580   1  11   0.0054   0.0047   0.0096   0.0014   0.0031   0.0028  -0.50   11.8
2022/04/04 09:29:46.983   42.174814329   27.849852859    91.3596   1  11   0.0055   0.0047   0.0097   0.0014   0.0032   0.0028  -0.13   12.1
2022/04/04 09:29:47.383   42.174836205   27.849854876    91.3150   1  11   0.0054   0.0047   0.0097   0.0014   0.0031   0.0028  -0.63   12.2
2022/04/04 09:29:49.383   42.174946312   27.849864975    91.1523   1  11   0.0054   0.0047   0.0097   0.0014   0.0031   0.0028  -0.63   12.5
2022/04/04 09:29:49.983   42.174979454   27.849868059    91.1295   1  11   0.0055   0.0047   0.0097   0.0014   0.0032   0.0028  -0.13   12.6
2022/04/04 09:29:51.783   42.175077823   27.849876620    91.0909   1  11   0.0054   0.0047   0.0097   0.0014   0.0031   0.0028  -0.25   13.0
2022/04/04 09:29:52.383   42.175110281   27.849879566    91.0357   1  11   0.0054   0.0047   0.0097   0.0014   0.0031   0.0028  -0.63   13.1
2022/04/04 09:29:54.223   42.175211148   27.849889337    90.9171   1  11   0.0055   0.0047   0.0097   0.0014   0.0032   0.0028  -0.88   13.4
2022/04/04 09:29:54.823   42.175244219   27.849892466    90.9221   1  11   0.0054   0.0047   0.0097   0.0014   0.0031   0.0028  -0.25   13.6
2022/04/04 09:29:56.623   42.175342920   27.849902242    90.9997   1  11   0.0054   0.0047   0.0097   0.0014   0.0031   0.0028  -0.38   13.9
2022/04/04 09:29:57.223   42.175375850   27.849905481    91.0367   1  11   0.0055   0.0047   0.0097   0.0014   0.0032   0.0028  -0.88   14.0
2022/04/04 09:29:59.063   42.175476595   27.849915240    91.2652   1  11   0.0054   0.0046   0.0096   0.0014   0.0031   0.0028  -0.00   14.3
2022/04/04 09:29:59.663   42.175509044   27.849918732    91.3423   1  11   0.0054   0.0047   0.0097   0.0014   0.0031   0.0028  -0.38   14.4
2022/04/04 09:30:04.183   42.175554417   27.849922173    90.9704   1  11   0.0055   0.0047   0.0097   0.0014   0.0032   0.0028  -0.88   15.2
2022/04/04 09:30:04.783   42.175558245   27.849924698    90.7578   1  11   0.0054   0.0047   0.0097   0.0014   0.0031   0.0028  -0.25   15.3
2022/04/04 09:30:07.663   42.175679063   27.850002378    90.2178   1  11   0.0054   0.0047   0.0097   0.0014   0.0031   0.0028  -0.38   15.8
2022/04/04 09:30:08.263   42.175708868   27.850021337    90.3039   1  11   0.0054   0.0047   0.0097   0.0014   0.0032   0.0028  -0.75   15.9
2022/04/04 09:30:10.103   42.175799170   27.850078529    90.5968   1  11   0.0054   0.0046   0.0096   0.0014   0.0031   0.0028  -0.00   16.2
2022/04/04 09:30:10.703   42.175828529   27.850097423    90.6253   1  11   0.0054   0.0047   0.0097   0.0014   0.0031   0.0028  -0.38   16.3
2022/04/04 09:30:12.503   42.175917085   27.850154527    90.7881   1  11   0.0054   0.0047   0.0097   0.0014   0.0031   0.0028  -0.50   16.5
2022/04/04 09:30:12.903   42.175936719   27.850167097    90.8281   1  11   0.0055   0.0047   0.0097   0.0014   0.0032   0.0028  -0.13   16.6
2022/04/04 09:30:14.943   42.176036983   27.850231709    90.9301   1  11   0.0055   0.0047   0.0097   0.0014   0.0032   0.0028  -0.13   16.9
2022/04/04 09:30:15.343   42.176056577   27.850244392    90.9328   1  11   0.0054   0.0047   0.0097   0.0014   0.0032   0.0028  -0.75   16.9
2022/04/04 09:30:17.343   42.176155203   27.850308030    90.9343   1  11   0.0054   0.0047   0.0097   0.0014   0.0032   0.0028  -0.75   17.3
2022/04/04 09:30:17.743   42.176174961   27.850320975    90.9356   1  11   0.0054   0.0047   0.0097   0.0014   0.0031   0.0028  -0.38   17.3
2022/04/04 09:30:19.743   42.176273530   27.850384379    91.1018   1  11   0.0054   0.0047   0.0097   0.0014   0.0031   0.0028  -0.38   17.6
2022/04/04 09:30:20.343   42.176303023   27.850403356    91.1301   1  11   0.0054   0.0047   0.0097   0.0014   0.0032   0.0028  -0.75   17.7
2022/04/04 09:30:22.183   42.176393617   27.850462176    91.2291   1  11   0.0054   0.0047   0.0097   0.0014   0.0032   0.0028  -0.88   18.0
2022/04/04 09:30:22.583   42.176413185   27.850474990    91.2476   1  11   0.0054   0.0047   0.0097   0.0014   0.0031   0.0028  -0.50   18.0
2022/04/04 09:30:24.583   42.176511696   27.850538820    91.2700   1  11   0.0054   0.0047   0.0097   0.0014   0.0031   0.0028  -0.50   18.3
2022/04/04 09:30:29.663   42.176613490   27.850603434    91.1474   1  11   0.0054   0.0047   0.0097   0.0014   0.0031   0.0028  -0.38   19.0
2022/04/04 09:30:30.263   42.176616095   27.850606910    90.9595   1  11   0.0054   0.0047   0.0097   0.0014   0.0032   0.0028  -0.75   19.1
2022/04/04 09:30:33.223   42.176706657   27.850735228    90.1974   1  11   0.0054   0.0047   0.0097   0.0014   0.0032   0.0028  -0.88   19.5
2022/04/04 09:30:35.663   42.176796965   27.850867879    90.2823   1  11   0.0054   0.0047   0.0097   0.0014   0.0031   0.0028  -0.38   19.9
2022/04/04 09:30:36.063   42.176811732   27.850889593    90.3313   1  11   0.0054   0.0046   0.0097   0.0014   0.0031   0.0028  -0.00   20.0
2022/04/04 09:30:38.063   42.176885530   27.850996668    90.6043   1  11   0.0054   0.0046   0.0097   0.0014   0.0031   0.0028  -0.00   20.2
2022/04/04 09:30:38.663   42.176907774   27.851028644    90.6125   1  11   0.0054   0.0047   0.0097   0.0014   0.0031   0.0028  -0.38   20.3
2022/04/04 09:30:40.463   42.176974511   27.851125226    90.5971   1  11   0.0054   0.0047   0.0097   0.0014   0.0032   0.0028  -0.63   20.5
2022/04/04 09:30:40.863   42.176989304   27.851146726    90.5931   1  11   0.0054   0.0047   0.0097   0.0014   0.0032   0.0028  -0.25   20.5
2022/04/04 09:30:42.903   42.177064895   27.851257402    90.7724   1  11   0.0054   0.0047   0.0098   0.0014   0.0032   0.0029  -0.13   20.7
2022/04/04 09:30:43.303   42.177079657   27.851278842    90.8408   1  11   0.0054   0.0047   0.0097   0.0014   0.0032   0.0028  -0.75   20.8
2022/04/04 09:30:45.303   42.177153864   27.851386176    90.9981   1  11   0.0054   0.0047   0.0097   0.0014   0.0032   0.0029  -0.75   21.0
2022/04/04 09:30:45.903   42.177175985   27.851418190    90.9703   1  11   0.0054   0.0047   0.0098   0.0014   0.0032   0.0029  -0.13   21.1
2022/04/04 09:30:47.743   42.177242530   27.851515491    90.7821   1  11   0.0054   0.0047   0.0097   0.0014   0.0032   0.0028  -0.38   21.3
2022/04/04 09:30:48.343   42.177258282   27.851539228    90.7544   1  11   0.0054   0.0047   0.0098   0.0014   0.0032   0.0029  -0.75   21.5
2022/04/04 09:30:50.983   42.177266242   27.851550241    90.6065   1  11   0.0054   0.0047   0.0098   0.0014   0.0032   0.0029  -0.13   21.9
2022/04/04 09:30:51.383   42.177267125   27.851552097    90.4783   1  11   0.0054   0.0047   0.0097   0.0014   0.0032   0.0029  -0.63   21.9
2022/04/04 09:30:54.503   42.177324821   27.851713496    89.8568   1  11   0.0054   0.0047   0.0097   0.0014   0.0031   0.0028  -0.50   22.3
2022/04/04 09:30:54.903   42.177334088   27.851740847    89.8557   1  11   0.0054   0.0047   0.0098   0.0014   0.0032   0.0029  -0.13   22.3
2022/04/04 09:30:56.944   42.177380734   27.851876149    90.0559   1  11   0.0054   0.0047   0.0098   0.0014   0.0032   0.0029  -0.13   22.6
2022/04/04 09:30:57.343   42.177389882   27.851902561    90.0874   1  11   0.0054   0.0047   0.0098   0.0014   0.0032   0.0029  -0.75   22.7
2022/04/04 09:30:59.343   42.177435854   27.852034553    90.3016   1  11   0.0054   0.0047   0.0098   0.0014   0.0032   0.0029  -0.75   22.9
2022/04/04 09:30:59.943   42.177449681   27.852074107    90.3505   1  11   0.0054   0.0047   0.0098   0.0014   0.0032   0.0029  -0.13   23.0
2022/04/04 09:31:01.783   42.177491991   27.852195810    90.4124   1  11   0.0054   0.0047   0.0098   0.0014   0.0032   0.0029  -0.25   23.3
2022/04/04 09:31:02.183   42.177501221   27.852222374    90.4156   1  11   0.0054   0.0047   0.0098   0.0014   0.0032   0.0029  -0.88   23.3
2022/04/04 09:31:04.183   42.177546992   27.852354734    90.4822   1  11   0.0054   0.0047   0.0098   0.0014   0.0032   0.0029  -0.88   23.6
2022/04/04 09:31:04.783   42.177560942   27.852394367    90.5233   1  11   0.0054   0.0047   0.0098   0.0014   0.0032   0.0029  -0.25   23.7
2022/04/04 09:31:06.584   42.177602503   27.852513441    90.7011   1  11   0.0054   0.0047   0.0097   0.0014   0.0032   0.0029  -0.50   23.9
2022/04/04 09:31:06.983   42.177611704   27.852539691    90.7375   1  11   0.0054   0.0047   0.0098   0.0014   0.0032   0.0029  -0.13   24.0
2022/04/04 09:31:09.023   42.177658887   27.852673725    90.8245   1  11   0.0054   0.0047   0.0097   0.0014   0.0031   0.0029  -0.00   24.2
2022/04/04 09:31:09.423   42.177668268   27.852699846    90.8403   1  11   0.0054   0.0047   0.0098   0.0014   0.0032   0.0029  -0.63   24.2
2022/04/04 09:31:13.063   42.177703291   27.852802456    90.8310   1  11   0.0054   0.0047   0.0097   0.0014   0.0031   0.0029  -0.00   24.6
2022/04/04 09:31:13.463   42.177703034   27.852802476    90.7907   1  11   0.0054   0.0047   0.0098   0.0014   0.0032   0.0029  -0.63   24.6
2022/04/04 09:31:22.784   42.177522162   27.852915238    90.2920   1  11   0.0055   0.0047   0.0098   0.0015   0.0032   0.0030  -0.25   26.6
2022/04/04 09:31:23.183   42.177521003   27.852913470    90.1363   1  11   0.0055   0.0047   0.0098   0.0015   0.0032   0.0030  -0.88   26.7
2022/04/04 09:31:26.224   42.177460980   27.852751477    89.8316   1  11   0.0055   0.0047   0.0098   0.0014   0.0032   0.0030  -0.88   27.2
2022/04/04 09:31:26.623   42.177451647   27.852724931    89.8924   1  11   0.0054   0.0047   0.0098   0.0014   0.0032   0.0029  -0.38   27.2
2022/04/04 09:31:28.624   42.177404679   27.852593699    90.0846   1  11   0.0054   0.0047   0.0098   0.0014   0.0032   0.0029  -0.38   27.6
2022/04/04 09:31:29.023   42.177395024   27.852567680    90.0915   1  11   0.0054   0.0047   0.0097   0.0014   0.0032   0.0029  -0.00   27.6
2022/04/04 09:31:31.064   42.177345998   27.852433594    90.0180   1  11   0.0054   0.0047   0.0097   0.0014   0.0032   0.0029  -0.00   27.9
2022/04/04 09:31:31.463   42.177336518   27.852407031    90.0047   1  11   0.0054   0.0047   0.0098   0.0014   0.0032   0.0029  -0.63   28.0
2022/04/04 09:31:33.464   42.177288678   27.852274580    89.9375   1  11   0.0054   0.0047   0.0098   0.0014   0.0032   0.0029  -0.63   28.3
2022/04/04 09:31:34.064   42.177274401   27.852234892    89.9225   1  11   0.0054   0.0047   0.0097   0.0014   0.0032   0.0029  -0.00    3.1
2022/04/04 09:31:35.904   42.177230525   27.852112902    89.8430   1  11   0.0054   0.0047   0.0098   0.0014   0.0032   0.0029  -0.13    3.3
2022/04/04 09:31:36.304   42.177221027   27.852086711    89.8121   1  11   0.0054   0.0047   0.0098   0.0014   0.0032   0.0029  -0.75    3.3
2022/04/04 09:31:38.304   42.177173443   27.851953753    89.7469   1  11   0.0054   0.0047   0.0098   0.0014   0.0032   0.0029  -0.75    3.8
2022/04/04 09:31:38.904   42.177159342   27.851913754    89.7365   1  11   0.0054   0.0047   0.0098   0.0014   0.0032   0.0029  -0.13    3.9
2022/04/04 09:31:40.744   42.177115456   27.851791613    89.6935   1  11   0.0054   0.0047   0.0098   0.0014   0.0032   0.0029  -0.38    4.3
2022/04/04 09:31:41.344   42.177101515   27.851752525    89.6688   1  11   0.0054   0.0047   0.0098   0.0014   0.0032   0.0029  -0.75    4.5
2022/04/04 09:31:44.864   42.177081351   27.851698311    89.5478   1  11   0.0054   0.0047   0.0098   0.0014   0.0032   0.0029  -0.25    5.3
2022/04/04 09:31:45.264   42.177079758   27.851696296    89.4609   1  11   0.0054   0.0047   0.0098   0.0014   0.0032   0.0029  -0.75    5.4
2022/04/04 09:31:48.304   42.176987273   27.851562099    89.2970   1  11   0.0054   0.0047   0.0098   0.0014   0.0032   0.0029  -0.75    6.1
2022/04/04 09:31:50.744   42.176897100   27.851430906    89.5099   1  11   0.0054   0.0047   0.0098   0.0014   0.0032   0.0029  -0.38    6.7
2022/04/04 09:31:51.344   42.176874607   27.851398872    89.5288   1  11   0.0054   0.0047   0.0098   0.0014   0.0032   0.0029  -0.75    6.8
2022/04/04 09:31:53.144   42.176807542   27.851301922    89.5687   1  11   0.0054   0.0047   0.0098   0.0014   0.0032   0.0029  -0.88    7.3
2022/04/04 09:31:55.584   42.176717120   27.851170086    89.5964   1  11   0.0054   0.0047   0.0098   0.0014   0.0032   0.0029  -0.50    7.9
2022/04/04 09:31:55.984   42.176701974   27.851148591    89.5911   1  11   0.0054   0.0047   0.0098   0.0014   0.0032   0.0029  -0.13    7.9
2022/04/04 09:31:57.984   42.176627463   27.851041468    89.5326   1  11   0.0054   0.0047   0.0098   0.0014   0.0032   0.0029  -0.13    8.5
2022/04/04 09:31:58.584   42.176605335   27.851009071    89.5385   1  11   0.0054   0.0047   0.0098   0.0014   0.0032   0.0029  -0.50    8.6
2022/04/04 09:32:00.424   42.176537029   27.850909242    89.5530   1  11   0.0054   0.0047   0.0098   0.0014   0.0032   0.0029  -0.63    9.1
2022/04/04 09:32:01.024   42.176514660   27.850876992    89.5493   1  11   0.0054   0.0047   0.0098   0.0014   0.0032   0.0029  -0.00    9.2
2022/04/04 09:32:05.024   42.176470034   27.850812975    89.3114   1  11   0.0054   0.0047   0.0098   0.0014   0.0032   0.0029  -0.00   10.3
2022/04/04 09:32:05.624   42.176466279   27.850809889    89.1515   1  11   0.0054   0.0047   0.0098   0.0014   0.0032   0.0029  -0.38   10.5
2022/04/04 09:32:08.464   42.176345902   27.850730698    88.8810   1  11   0.0054   0.0047   0.0098   0.0014   0.0032   0.0029  -0.63   11.2
2022/04/04 09:32:08.864   42.176326218   27.850718166    88.8818   1  11   0.0054   0.0047   0.0098   0.0014   0.0032   0.0029  -0.25   11.3
2022/04/04 09:32:10.864   42.176228585   27.850655675    88.9220   1  11   0.0054   0.0047   0.0098   0.0014   0.0032   0.0029  -0.25   11.9
2022/04/04 09:32:11.464   42.176198958   27.850636878    88.9519   1  11   0.0054   0.0047   0.0098   0.0014   0.0032   0.0029  -0.63   12.1
2022/04/04 09:32:13.304   42.176108521   27.850579165    89.1258   1  11   0.0054   0.0047   0.0098   0.0014   0.0032   0.0029  -0.75   12.6
2022/04/04 09:32:13.904   42.176078955   27.850560200    89.1771   1  11   0.0054   0.0047   0.0099   0.0014   0.0032   0.0030  -0.13   12.7
2022/04/04 09:32:15.704   42.175990680   27.850503618    89.2500   1  11   0.0054   0.0047   0.0098   0.0014   0.0032   0.0029  -0.38   13.2
2022/04/04 09:32:16.304   42.175961243   27.850484583    89.2950   1  11   0.0054   0.0047   0.0099   0.0014   0.0032   0.0030  -0.75   13.3
2022/04/04 09:32:18.104   42.175873052   27.850426802    89.5594   1  11   0.0054   0.0047   0.0098   0.0014   0.0032   0.0029  -0.00   13.8
2022/04/04 09:32:18.704   42.175843685   27.850407620    89.5882   1  11   0.0054   0.0047   0.0098   0.0014   0.0032   0.0029  -0.38   13.9
2022/04/04 09:32:20.544   42.175753557   27.850348863    89.7092   1  11   0.0054   0.0047   0.0098   0.0014   0.0032   0.0029  -0.50   14.5
2022/04/04 09:32:20.944   42.175734137   27.850336027    89.7306   1  11   0.0054   0.0047   0.0099   0.0014   0.0032   0.0030  -0.13   14.6
2022/04/04 09:32:22.944   42.175635921   27.850271931    89.7508   1  11   0.0054   0.0047   0.0099   0.0014   0.0032   0.0030  -0.13   15.2
2022/04/04 09:32:23.344   42.175616136   27.850259120    89.7739   1  11   0.0054   0.0047   0.0099   0.0014   0.0032   0.0030  -0.75   15.3
2022/04/04 09:32:25.384   42.175517054   27.850194548    90.0036   1  11   0.0054   0.0047   0.0098   0.0014   0.0032   0.0030  -0.63   15.8
2022/04/04 09:32:25.984   42.175495525   27.850180572    90.0331   1  11   0.0054   0.0047   0.0099   0.0014   0.0032   0.0030  -0.13   15.9
2022/04/04 09:32:28.824   42.175481931   27.850172514    89.6374   1  11   0.0054   0.0047   0.0099   0.0014   0.0032   0.0030  -0.25   16.5
2022/04/04 09:32:29.224   42.175480507   27.850172072    89.4467   1  11   0.0054   0.0047   0.0099   0.0014   0.0032   0.0030  -0.88   16.6
2022/04/04 09:32:32.304   42.175345911   27.850159609    88.8400   1  11   0.0054   0.0047   0.0099   0.0014   0.0032   0.0030  -0.75   17.4
2022/04/04 09:32:32.704   42.175324352   27.850157877    88.9306   1  11   0.0054   0.0047   0.0098   0.0014   0.0032   0.0030  -0.38   17.5
2022/04/04 09:32:34.744   42.175214976   27.850147637    89.2998   1  11   0.0054   0.0047   0.0098   0.0014   0.0032   0.0030  -0.38   18.1
2022/04/04 09:32:37.144   42.175084800   27.850136458    89.3628   1  11   0.0054   0.0047   0.0099   0.0014   0.0032   0.0030  -0.88   18.7
2022/04/04 09:32:37.744   42.175052276   27.850134022    89.3411   1  11   0.0054   0.0047   0.0098   0.0014   0.0032   0.0030  -0.38   18.8
2022/04/04 09:32:39.584   42.174953251   27.850126930    89.5716   1  11   0.0054   0.0047   0.0098   0.0014   0.0032   0.0030  -0.50   19.2
2022/04/04 09:32:40.184   42.174921102   27.850124374    89.7070   1  11   0.0054   0.0047   0.0099   0.0014   0.0032   0.0030  -0.88   19.4
2022/04/04 09:32:41.984   42.174824478   27.850115387    89.9057   1  11   0.0054   0.0047   0.0099   0.0014   0.0032   0.0030  -0.13   19.9
2022/04/04 09:32:42.384   42.174802889   27.850113229    89.8999   1  11   0.0054   0.0047   0.0099   0.0014   0.0032   0.0030  -0.63   20.0
2022/04/04 09:32:44.384   42.174694256   27.850102776    89.8713   1  11   0.0054   0.0047   0.0099   0.0014   0.0032   0.0030  -0.63   20.6
2022/04/04 09:32:44.784   42.174672656   27.850100634    89.8549   1  11   0.0054   0.0047   0.0099   0.0014   0.0032   0.0030  -0.25   20.8
2022/04/04 09:32:46.824   42.174562502   27.850090308    89.7081   1  11   0.0054   0.0047   0.0099   0.0014   0.0032   0.0030  -0.25   21.3
2022/04/04 09:32:47.424   42.174530205   27.850087276    89.7070   1  11   0.0054   0.0047   0.0099   0.0014   0.0032   0.0030  -0.63   21.5
2022/04/04 09:32:49.224   42.174432673   27.850078422    89.5590   1  11   0.0054   0.0047   0.0099   0.0014   0.0032   0.0030  -0.88   22.0
2022/04/04 09:32:49.624   42.174410908   27.850076557    89.5351   1  11   0.0054   0.0047   0.0099   0.0014   0.0032   0.0030  -0.38   22.1
2022/04/04 09:32:51.664   42.174300481   27.850067068    89.5178   1  11   0.0054   0.0047   0.0099   0.0014   0.0032   0.0030  -0.38   22.7
2022/04/04 09:32:54.064   42.174170664   27.850055917    89.5728   1  11   0.0054   0.0047   0.0098   0.0014   0.0032   0.0030  -0.00   23.4
2022/04/04 09:32:54.664   42.174138272   27.850053043    89.6178   1  11   0.0054   0.0047   0.0099   0.0014   0.0032   0.0030  -0.38   23.5
2022/04/04 09:32:56.504   42.174038936   27.850043655    89.7525   1  11   0.0054   0.0047   0.0099   0.0014   0.0032   0.0030  -0.50   24.0
2022/04/04 09:32:56.904   42.174017327   27.850041636    89.7749   1  11   0.0054   0.0047   0.0099   0.0014   0.0032   0.0030  -0.13   24.1
2022/04/04 09:32:58.904   42.173909637   27.850032881    89.7887   1  11   0.0054   0.0047   0.0099   0.0014   0.0032   0.0030  -0.13   24.6
2022/04/04 09:32:59.504   42.173877153   27.850030100    89.7717   1  11   0.0054   0.0047   0.0099   0.0014   0.0032   0.0030  -0.50   24.7
2022/04/04 09:33:01.344   42.173777990   27.850021485    89.7631   1  11   0.0054   0.0047   0.0099   0.0014   0.0032   0.0030  -0.75   25.2
2022/04/04 09:33:01.744   42.173756630   27.850019491    89.7733   1  11   0.0054   0.0047   0.0099   0.0014   0.0032   0.0030  -0.38   25.3
2022/04/04 09:33:03.744   42.173648960   27.850009268    89.8881   1  11   0.0054   0.0047   0.0099   0.0014   0.0032   0.0030  -0.38   25.7
2022/04/04 09:33:04.144   42.173627450   27.850007345    89.8994   1  11   0.0054   0.0047   0.0099   0.0014   0.0032   0.0030  -0.88   25.7
2022/04/04 09:33:06.184   42.173519118   27.849997737    89.9081   1  11   0.0054   0.0047   0.0099   0.0014   0.0032   0.0030  -0.88   26.2
2022/04/04 09:33:06.584   42.173502491   27.849995854    89.8878   1  11   0.0054   0.0047   0.0099   0.0014   0.0032   0.0030  -0.50   26.3
2022/04/04 09:33:18.504   42.173474170   27.850262223    89.6494   1  11   0.0054   0.0047   0.0099   0.0014   0.0032   0.0030  -0.50   27.2
2022/04/04 09:33:19.104   42.173478531   27.850262350    89.4508   1  11   0.0054   0.0047   0.0099   0.0014   0.0032   0.0030  -0.00   27.3
2022/04/04 09:33:21.945   42.173611084   27.850274713    88.7769   1  11   0.0054   0.0047   0.0099   0.0014   0.0032   0.0030  -0.13   27.5
2022/04/04 09:33:22.544   42.173644556   27.850278255    88.8446   1  11   0.0054   0.0047   0.0099   0.0014   0.0032   0.0030  -0.50   27.5
2022/04/04 09:33:24.345   42.173743255   27.850288421    89.1033   1  11   0.0054   0.0047   0.0099   0.0014   0.0032   0.0030  -0.75   27.7
2022/04/04 09:33:24.944   42.173775996   27.850291375    89.1799   1  11   0.0054   0.0047   0.0100   0.0014   0.0032   0.0030  -0.13   27.7
2022/04/04 09:33:26.785   42.173876619   27.850301729    89.4967   1  11   0.0054   0.0047   0.0099   0.0014   0.0032   0.0030  -0.25   27.9
2022/04/04 09:33:27.184   42.173898540   27.850304018    89.5796   1  11   0.0054   0.0047   0.0099   0.0014   0.0032   0.0030  -0.88   27.9
2022/04/04 09:33:29.185   42.174008339   27.850314678    89.9969   1  11   0.0054   0.0047   0.0099   0.0014   0.0032   0.0030  -0.88   27.9
2022/04/04 09:33:29.784   42.174040930   27.850317820    90.0635   1  11   0.0054   0.0047   0.0099   0.0014   0.0032   0.0030  -0.25   28.0
2022/04/04 09:33:31.625   42.174140697   27.850326503    89.9601   1  11   0.0054   0.0047   0.0099   0.0014   0.0032   0.0030  -0.38   28.2
2022/04/04 09:33:32.025   42.174162696   27.850328333    89.9118   1  11   0.0054   0.0047   0.0099   0.0014   0.0032   0.0030  -0.00   28.2
2022/04/04 09:33:34.025   42.174273717   27.850338251    89.7716   1  11   0.0054   0.0047   0.0099   0.0014   0.0032   0.0030  -0.00   28.6
2022/04/04 09:33:36.465   42.174408292   27.850350001    89.7449   1  11   0.0054   0.0047   0.0099   0.0014   0.0032   0.0030  -0.63   29.5
2022/04/04 09:33:36.865   42.174430239   27.850351947    89.7836   1  11   0.0054   0.0047   0.0099   0.0014   0.0032   0.0030  -0.25   29.6
2022/04/04 09:33:38.865   42.174539641   27.850360777    89.9433   1  11   0.0054   0.0047   0.0099   0.0014   0.0032   0.0030  -0.25   30.3
2022/04/04 09:33:39.265   42.174561529   27.850362689    89.9451   1  11   0.0054   0.0047   0.0100   0.0014   0.0032   0.0030  -0.75   30.5
2022/04/04 09:33:41.305   42.174673418   27.850373168    89.8568   1  11   0.0054   0.0047   0.0100   0.0014   0.0032   0.0030  -0.75   31.2
2022/04/04 09:33:41.905   42.174706440   27.850376249    89.8167   1  11   0.0054   0.0047   0.0100   0.0014   0.0032   0.0030  -0.13   31.5
2022/04/04 09:33:43.705   42.174804913   27.850385176    89.7745   1  11   0.0054   0.0047   0.0099   0.0014   0.0032   0.0030  -0.38   32.2
2022/04/04 09:33:44.305   42.174837576   27.850388109    89.8080   1  11   0.0054   0.0047   0.0100   0.0014   0.0032   0.0030  -0.75   32.4
2022/04/04 09:33:46.105   42.174936715   27.850397216    89.8625   1  11   0.0054   0.0047   0.0099   0.0014   0.0032   0.0030  -0.00   33.0
2022/04/04 09:33:46.705   42.174969792   27.850400216    89.8427   1  11   0.0054   0.0047   0.0099   0.0014   0.0032   0.0030  -0.38   33.3
2022/04/04 09:33:48.545   42.175070857   27.850409425    89.8949   1  11   0.0054   0.0047   0.0099   0.0014   0.0032   0.0030  -0.50   34.1
2022/04/04 09:33:48.945   42.175092748   27.850411634    89.8756   1  11   0.0054   0.0047   0.0100   0.0014   0.0032   0.0031  -0.13   34.2
2022/04/04 09:33:50.945   42.175201597   27.850421877    89.9546   1  11   0.0054   0.0047   0.0100   0.0014   0.0032   0.0031  -0.13   35.1
2022/04/04 09:33:51.545   42.175234328   27.850424874    89.9534   1  11   0.0054   0.0047   0.0099   0.0014   0.0032   0.0030  -0.50   35.3
2022/04/04 09:33:53.385   42.175333858   27.850433311    89.9427   1  11   0.0054   0.0047   0.0099   0.0014   0.0032   0.0030  -0.63   36.0
2022/04/04 09:33:53.785   42.175355368   27.850435148    89.9537   1  11   0.0054   0.0047   0.0100   0.0014   0.0032   0.0030  -0.25   36.1
2022/04/04 09:33:56.465   42.175464346   27.850444834    90.0439   1  11   0.0054   0.0047   0.0099   0.0014   0.0032   0.0030  -0.63   37.3
2022/04/04 09:33:57.065   42.175465685   27.850444469    90.0425   1  11   0.0054   0.0047   0.0099   0.0014   0.0032   0.0030  -0.00   37.5
2022/04/04 09:33:58.465   42.175464617   27.850445178    89.9646   1  11   0.0054   0.0047   0.0100   0.0014   0.0032   0.0030  -0.63   38.0
2022/04/04 09:33:58.865   42.175465997   27.850446436    89.8564   1  11   0.0054   0.0047   0.0100   0.0014   0.0032   0.0031  -0.25   38.0
2022/04/04 09:34:02.065   42.175590326   27.850527590    89.2416   1  11   0.0054   0.0047   0.0099   0.0014   0.0032   0.0030  -0.00   38.7
2022/04/04 09:34:02.465   42.175610523   27.850540255    89.2656   1  11   0.0054   0.0047   0.0100   0.0014   0.0032   0.0031  -0.63   38.8
2022/04/04 09:34:04.465   42.175709433   27.850602330    89.3657   1  11   0.0054   0.0047   0.0100   0.0014   0.0032   0.0031  -0.63   39.2
2022/04/04 09:34:06.905   42.175829171   27.850679907    89.5155   1  11   0.0054   0.0047   0.0100   0.0014   0.0032   0.0031  -0.13   39.8
2022/04/04 09:34:09.305   42.175947643   27.850756509    89.6095   1  11   0.0054   0.0047   0.0100   0.0014   0.0032   0.0031  -0.75   40.2
2022/04/04 09:34:09.705   42.175967265   27.850769370    89.6581   1  11   0.0054   0.0047   0.0100   0.0014   0.0032   0.0031  -0.38   40.2
2022/04/04 09:34:11.705   42.176064779   27.850833122    89.7904   1  11   0.0054   0.0047   0.0100   0.0014   0.0032   0.0031  -0.38   40.7
2022/04/04 09:34:12.105   42.176084178   27.850845767    89.8118   1  11   0.0054   0.0047   0.0099   0.0014   0.0032   0.0030  -0.00   40.9
2022/04/04 09:34:14.145   42.176184558   27.850910668    89.8843   1  11   0.0054   0.0047   0.0100   0.0014   0.0032   0.0031  -0.88   41.3
2022/04/04 09:34:14.745   42.176214206   27.850929905    89.8646   1  11   0.0054   0.0047   0.0100   0.0014   0.0032   0.0031  -0.38   41.4
2022/04/04 09:34:16.545   42.176302933   27.850987501    89.7911   1  11   0.0054   0.0047   0.0100   0.0014   0.0032   0.0031  -0.50   41.9
2022/04/04 09:34:16.945   42.176322101   27.851000212    89.7949   1  11   0.0054   0.0047   0.0100   0.0014   0.0032   0.0031  -0.13   42.0
2022/04/04 09:34:20.985   42.176386243   27.851042510    89.9399   1  11   0.0054   0.0047   0.0100   0.0014   0.0032   0.0031  -0.13   42.6
2022/04/04 09:34:21.585   42.176388290   27.851046659    89.7793   1  11   0.0054   0.0047   0.0100   0.0014   0.0032   0.0031  -0.50   42.7
2022/04/04 09:34:24.505   42.176477583   27.851175950    89.0259   1  11   0.0054   0.0047   0.0100   0.0014   0.0032   0.0031  -0.50   43.4
2022/04/04 09:34:25.105   42.176499863   27.851208972    89.0232   1  11   0.0054   0.0047   0.0099   0.0014   0.0032   0.0031  -0.00   43.5
2022/04/04 09:34:26.945   42.176566843   27.851307479    89.1534   1  11   0.0054   0.0047   0.0100   0.0014   0.0032   0.0031  -0.13   44.1
2022/04/04 09:34:27.545   42.176588945   27.851339431    89.2137   1  11   0.0054   0.0047   0.0100   0.0014   0.0032   0.0031  -0.50   44.3
2022/04/04 09:34:29.345   42.176655489   27.851435058    89.3338   1  11   0.0054   0.0047   0.0100   0.0014   0.0032   0.0031  -0.75   44.6
2022/04/04 09:34:29.745   42.176670193   27.851456448    89.3358   1  11   0.0054   0.0047   0.0100   0.0014   0.0032   0.0031  -0.38   44.6
2022/04/04 09:34:31.745   42.176744565   27.851563319    89.3198   1  11   0.0054   0.0047   0.0100   0.0014   0.0032   0.0031  -0.38   45.0
2022/04/04 09:34:34.185   42.176833399   27.851693750    89.4398   1  11   0.0054   0.0047   0.0100   0.0014   0.0032   0.0031  -0.88   45.5
2022/04/04 09:34:34.785   42.176854912   27.851725590    89.4552   1  11   0.0054   0.0047   0.0100   0.0014   0.0032   0.0031  -0.25   45.6
2022/04/04 09:34:36.625   42.176921318   27.851822457    89.5656   1  11   0.0054   0.0047   0.0100   0.0014   0.0032   0.0031  -0.38   45.9
2022/04/04 09:34:37.225   42.176935982   27.851844520    89.6646   1  11   0.0054   0.0047   0.0100   0.0014   0.0032   0.0031  -0.88   46.0
2022/04/04 09:34:39.905   42.176942005   27.851853141    89.6962   1  11   0.0054   0.0047   0.0100   0.0014   0.0032   0.0031  -0.13   46.7
2022/04/04 09:34:40.505   42.176943878   27.851857344    89.5376   1  11   0.0054   0.0047   0.0100   0.0014   0.0032   0.0031  -0.50   46.8
2022/04/04 09:34:43.425   42.177001301   27.852014928    89.0849   1  11   0.0054   0.0047   0.0100   0.0014   0.0032   0.0031  -0.63   47.3
2022/04/04 09:34:44.025   42.177015337   27.852056135    89.1114   1  11   0.0054   0.0047   0.0100   0.0014   0.0032   0.0031  -0.00   47.4
2022/04/04 09:34:45.865   42.177058125   27.852178945    89.3620   1  11   0.0054   0.0047   0.0100   0.0014   0.0032   0.0031  -0.25   47.5
2022/04/04 09:34:46.265   42.177067102   27.852205323    89.4124   1  11   0.0054   0.0047   0.0100   0.0014   0.0032   0.0031  -0.75   47.6
2022/04/04 09:34:48.265   42.177112570   27.852337202    89.6080   1  11   0.0054   0.0047   0.0100   0.0014   0.0032   0.0031  -0.75   47.9
2022/04/04 09:34:48.865   42.177126650   27.852376656    89.6583   1  11   0.0054   0.0047   0.0100   0.0014   0.0032   0.0031  -0.25   47.9
2022/04/04 09:34:50.665   42.177168964   27.852494691    89.6216   1  11   0.0054   0.0047   0.0100   0.0014   0.0032   0.0031  -0.38   47.9
2022/04/04 09:34:51.065   42.177178103   27.852520851    89.5871   1  11   0.0053   0.0047   0.0100   0.0014   0.0032   0.0031  -0.00   48.1
2022/04/04 09:34:53.105   42.177224404   27.852655695    89.4997   1  11   0.0053   0.0047   0.0100   0.0014   0.0032   0.0031  -0.00   48.2
2022/04/04 09:34:53.505   42.177233562   27.852682039    89.4893   1  11   0.0054   0.0047   0.0100   0.0014   0.0032   0.0031  -0.50   48.2
2022/04/04 09:34:55.505   42.177279233   27.852814353    89.4428   1  11   0.0054   0.0047   0.0100   0.0014   0.0032   0.0031  -0.50   48.3
2022/04/04 09:34:55.905   42.177288287   27.852840775    89.4264   1  11   0.0054   0.0047   0.0101   0.0014   0.0032   0.0031  -0.13   48.4
2022/04/04 09:34:57.945   42.177334599   27.852975223    89.3705   1  11   0.0054   0.0047   0.0101   0.0014   0.0032   0.0031  -0.13   48.6
2022/04/04 09:34:58.345   42.177342239   27.852998476    89.4294   1  11   0.0054   0.0047   0.0101   0.0014   0.0032   0.0031  -0.75   48.6
2022/04/04 09:35:00.825   42.177351309   27.853030609    89.4435   1  11   0.0054   0.0047   0.0100   0.0014   0.0032   0.0031  -0.25   49.3
2022/04/04 09:35:01.225   42.177350995   27.853030609    89.3785   1  11   0.0054   0.0047   0.0101   0.0014   0.0032   0.0031  -0.88   49.3
2022/04/04 09:35:10.585   42.177169471   27.853143701    89.0354   1  11   0.0054   0.0047   0.0100   0.0014   0.0032   0.0031  -0.50   50.8
2022/04/04 09:35:10.985   42.177168220   27.853141770    88.8792   1  11   0.0054   0.0047   0.0101   0.0014   0.0032   0.0031  -0.13   50.8
2022/04/04 09:35:14.026   42.177108171   27.852979639    88.6880   1  11   0.0053   0.0047   0.0100   0.0014   0.0032   0.0031  -0.00   50.7
2022/04/04 09:35:14.425   42.177098848   27.852953395    88.7421   1  11   0.0054   0.0047   0.0100   0.0014   0.0032   0.0031  -0.63   50.7
2022/04/04 09:35:16.425   42.177051446   27.852821741    89.0177   1  11   0.0054   0.0047   0.0101   0.0014   0.0032   0.0031  -0.63   50.8
2022/04/04 09:35:18.825   42.176993539   27.852662443    89.1713   1  11   0.0054   0.0047   0.0101   0.0014   0.0032   0.0031  -0.25   51.0
2022/04/04 09:35:19.225   42.176983897   27.852635999    89.1834   1  11   0.0054   0.0047   0.0101   0.0014   0.0032   0.0031  -0.88   51.0
2022/04/04 09:35:21.266   42.176934565   27.852500593    89.1369   1  11   0.0054   0.0047   0.0101   0.0014   0.0032   0.0031  -0.75   51.1
2022/04/04 09:35:21.665   42.176924969   27.852473865    89.1153   1  11   0.0054   0.0047   0.0101   0.0014   0.0032   0.0031  -0.38   51.2
2022/04/04 09:35:23.666   42.176877462   27.852340874    89.0614   1  11   0.0054   0.0047   0.0101   0.0014   0.0032   0.0031  -0.38   51.7
2022/04/04 09:35:24.065   42.176867896   27.852314278    89.0625   1  11   0.0053   0.0047   0.0100   0.0014   0.0032   0.0031  -0.00   51.9
2022/04/04 09:35:26.106   42.176820706   27.852178839    89.0851   1  11   0.0053   0.0047   0.0100   0.0014   0.0032   0.0031  -0.00   52.3
2022/04/04 09:35:26.705   42.176806702   27.852138646    89.0698   1  11   0.0054   0.0047   0.0101   0.0014   0.0032   0.0031  -0.38   52.4
2022/04/04 09:35:28.666   42.176764450   27.852018891    89.0511   1  11   0.0054   0.0047   0.0101   0.0014   0.0032   0.0031  -0.38   53.3
2022/04/04 09:35:29.065   42.176760149   27.852006588    89.0935   1  11   0.0053   0.0047   0.0100   0.0014   0.0032   0.0031  -0.00   53.5
2022/04/04 09:35:31.506   42.176757469   27.851999437    89.0365   1  11   0.0054   0.0047   0.0101   0.0014   0.0032   0.0031  -0.50   54.3
2022/04/04 09:35:32.106   42.176754213   27.851995524    88.8726   1  11   0.0053   0.0047   0.0100   0.0014   0.0032   0.0031  -0.00   54.5
2022/04/04 09:35:35.026   42.176662732   27.851862316    88.7380   1  11   0.0053   0.0047   0.0100   0.0014   0.0032   0.0031  -0.00   55.2
2022/04/04 09:35:35.426   42.176647904   27.851840491    88.7686   1  11   0.0054   0.0047   0.0101   0.0014   0.0032   0.0031  -0.63   55.4
2022/04/04 09:35:37.466   42.176572326   27.851730822    88.7134   1  11   0.0054   0.0047   0.0101   0.0014   0.0032   0.0031  -0.63   55.9
2022/04/04 09:35:37.865   42.176557474   27.851709555    88.7114   1  11   0.0054   0.0047   0.0101   0.0014   0.0032   0.0032  -0.25   56.0
2022/04/04 09:35:39.866   42.176482844   27.851601848    88.8529   1  11   0.0054   0.0047   0.0101   0.0014   0.0032   0.0032  -0.25   56.5
2022/04/04 09:35:40.266   42.176468124   27.851580219    88.8978   1  11   0.0054   0.0047   0.0101   0.0014   0.0032   0.0032  -0.75   56.8
2022/04/04 09:35:42.266   42.176394207   27.851472525    89.0072   1  11   0.0054   0.0047   0.0101   0.0014   0.0032   0.0032  -0.75   57.7
2022/04/04 09:35:42.666   42.176379219   27.851451299    89.0107   1  11   0.0054   0.0047   0.0101   0.0014   0.0032   0.0031  -0.38   57.9
2022/04/04 09:35:44.706   42.176303709   27.851341941    89.0936   1  11   0.0054   0.0047   0.0101   0.0014   0.0032   0.0031  -0.38   58.5
2022/04/04 09:35:45.106   42.176288794   27.851320429    89.1199   1  11   0.0053   0.0047   0.0100   0.0014   0.0032   0.0031  -0.00   58.6
2022/04/04 09:35:49.226   42.176238672   27.851250374    89.1553   1  11   0.0054   0.0047   0.0101   0.0014   0.0032   0.0032  -0.88   60.4
2022/04/04 09:35:49.626   42.176237341   27.851249346    89.0217   1  11   0.0054   0.0047   0.0101   0.0014   0.0032   0.0032  -0.38   60.5
2022/04/04 09:35:52.746   42.176115746   27.851167548    88.5989   1  11   0.0054   0.0047   0.0101   0.0014   0.0032   0.0032  -0.38   61.7
2022/04/04 09:35:53.146   42.176096276   27.851154623    88.6451   1  11   0.0054   0.0047   0.0101   0.0014   0.0032   0.0032  -0.88   61.9
2022/04/04 09:35:55.186   42.175996655   27.851089981    88.8287   1  11   0.0054   0.0047   0.0101   0.0014   0.0032   0.0032  -0.88   62.6
2022/04/04 09:35:57.586   42.175878383   27.851014414    88.9254   1  11   0.0054   0.0047   0.0101   0.0014   0.0032   0.0032  -0.50   63.5
2022/04/04 09:36:00.026   42.175758247   27.850936736    88.9963   1  11   0.0053   0.0047   0.0101   0.0014   0.0032   0.0031  -0.00   64.4
